[{"census_year": "2002", "block_id": 11, "property_id": "108972", "base_property_id": "108972", "building_address": "10-22 Spencer Street MELBOURNE 3000", "clue_small_area": "Melbourne (CBD)", "trading_name": "Explorers Inn", "business_address": "10-22 Spencer Street MELBOURNE 3000", "number_of_patrons": 50, "longitude": 144.95525416628004, "latitude": -37.82051068881513, "location": {"lon": 144.95525416628004, "lat": -37.82051068881513}},{"census_year": "2002", "block_id": 14, "property_id": "103172", "base_property_id": "103172", "building_address": "31-39 Elizabeth Street MELBOURNE 3000", "clue_small_area": "Melbourne (CBD)", "trading_name": "Connells Tavern", "business_address": "35 Elizabeth Street MELBOURNE 3000", "number_of_patrons": 350, "longitude": 144.964321660097, "latitude": -37.81742610667125, "location": {"lon": 144.964321660097, "lat": -37.81742610667125}},{"census_year": "2002", "block_id": 15, "property_id": "103944", "base_property_id": "103944", "building_address": "277-279 Flinders Lane MELBOURNE 3000", "clue_small_area": "Melbourne (CBD)", "trading_name": "De Biers", "business_address": "Unit 1, Basement , 277 Flinders Lane MELBOURNE 3000", "number_of_patrons": 400, "longitude": 144.96530699086, "latitude": -37.81724194023457, "location": {"lon": 144.96530699086, "lat": -37.81724194023457}},{"census_year": "2002", "block_id": 16, "property_id": "103938", "base_property_id": "103938", "building_address": "187 Flinders Lane MELBOURNE 3000", "clue_small_area": "Melbourne (CBD)", "trading_name": "Adelphi Hotel", "business_address": "187 Flinders Lane MELBOURNE 3000", "number_of_patrons": 80, "longitude": 144.9683846004515, "latitude": -37.81635974400108, "location": {"lon": 144.9683846004515, "lat": -37.81635974400108}},{"census_year": "2002", "block_id": 17, "property_id": "103925", "base_property_id": "103925", "building_address": "121-123 Flinders Lane MELBOURNE 3000", "clue_small_area": "Melbourne (CBD)", "trading_name": "Velour", "business_address": "Unit 1, Gnd & Bmt , 121 Flinders Lane MELBOURNE 3000", "number_of_patrons": 350, "longitude": 144.97052296371248, "latitude": -37.815673646380745, "location": {"lon": 144.97052296371248, "lat": -37.815673646380745}},{"census_year": "2002", "block_id": 33, "property_id": "105937", "base_property_id": "105937", "building_address": "435-443 Little Collins Street MELBOURNE 3000", "clue_small_area": "Melbourne (CBD)", "trading_name": "The Kitchen Restaurant", "business_address": "LwrGround , 25 Little Collins Street MELBOURNE 3000", "number_of_patrons": 200, "longitude": 144.96010676156988, "latitude": -37.816397070511165, "location": {"lon": 144.96010676156988, "lat": -37.816397070511165}},{"census_year": "2002", "block_id": 35, "property_id": "102143", "base_property_id": "102143", "building_address": "258-274 Collins Street MELBOURNE 3000", "clue_small_area": "Melbourne (CBD)", "trading_name": "Australia On Collins Bar", "business_address": "Shop 121, Basement , 260 Collins Street MELBOURNE 3000", "number_of_patrons": 11, "longitude": 144.96491857864146, "latitude": -37.81541503501324, "location": {"lon": 144.96491857864146, "lat": -37.81541503501324}},{"census_year": "2002", "block_id": 37, "property_id": "102158", "base_property_id": "102158", "building_address": "86-88 Collins Street MELBOURNE 3000", "clue_small_area": "Melbourne (CBD)", "trading_name": "Dr Martin's Tavern", "business_address": "86A Collins Street MELBOURNE 3000", "number_of_patrons": 291, "longitude": 144.97059378480083, "latitude": -37.8139380932959, "location": {"lon": 144.97059378480083, "lat": -37.8139380932959}},{"census_year": "2002", "block_id": 42, "property_id": "105392", "base_property_id": "105392", "building_address": "120-138 King Street MELBOURNE 3000", "clue_small_area": "Melbourne (CBD)", "trading_name": "The Exchange Hotel", "business_address": "Part Ground , 120 King Street MELBOURNE 3000", "number_of_patrons": 300, "longitude": 144.95641679014355, "latitude": -37.81703382441968, "location": {"lon": 144.95641679014355, "lat": -37.81703382441968}},{"census_year": "2002", "block_id": 43, "property_id": "108069", "base_property_id": "108069", "building_address": "131-141 Queen Street MELBOURNE 3000", "clue_small_area": "Melbourne (CBD)", "trading_name": "The Turf Bar & Restaurant", "business_address": "Unit 1, LwrGround , 131 Queen Street MELBOURNE 3000", "number_of_patrons": 400, "longitude": 144.96054302812774, "latitude": -37.815496733626624, "location": {"lon": 144.96054302812774, "lat": -37.815496733626624}},{"census_year": "2002", "block_id": 48, "property_id": "101109", "base_property_id": "101109", "building_address": "39-43 Bourke Street MELBOURNE 3000", "clue_small_area": "Melbourne (CBD)", "trading_name": "Spleen Central", "business_address": "41 Bourke Street MELBOURNE 3000", "number_of_patrons": 100, "longitude": 144.9720552011901, "latitude": -37.81193701505745, "location": {"lon": 144.9720552011901, "lat": -37.81193701505745}},{"census_year": "2002", "block_id": 48, "property_id": "105968", "base_property_id": "105968", "building_address": "62-66 Little Collins Street MELBOURNE 3000", "clue_small_area": "Melbourne (CBD)", "trading_name": "Bridie O'Reillys", "business_address": "62-66 Little Collins Street MELBOURNE 3000", "number_of_patrons": 300, "longitude": 144.97145124751802, "latitude": -37.81281107608043, "location": {"lon": 144.97145124751802, "lat": -37.81281107608043}},{"census_year": "2002", "block_id": 48, "property_id": "108983", "base_property_id": "108983", "building_address": "103-137 Spring Street MELBOURNE 3000", "clue_small_area": "Melbourne (CBD)", "trading_name": "Hard Rock Cafe", "business_address": "1 Spring Street MELBOURNE 3000", "number_of_patrons": 500, "longitude": 144.9729329718854, "latitude": -37.811995901555065, "location": {"lon": 144.9729329718854, "lat": -37.811995901555065}},{"census_year": "2002", "block_id": 56, "property_id": "101207", "base_property_id": "101207", "building_address": "184-186 Bourke Street MELBOURNE 3000", "clue_small_area": "Melbourne (CBD)", "trading_name": "Hollywood Karaoke Bar", "business_address": "Level 1, 184-186 Bourke Street MELBOURNE 3000", "number_of_patrons": 150, "longitude": 144.96769718945876, "latitude": -37.812677389205746, "location": {"lon": 144.96769718945876, "lat": -37.812677389205746}},{"census_year": "2002", "block_id": 58, "property_id": "101238", "base_property_id": "101238", "building_address": "2-8 Bourke Street MELBOURNE 3000", "clue_small_area": "Melbourne (CBD)", "trading_name": "Imperial Hotel", "business_address": "2-8 Bourke Street MELBOURNE 3000", "number_of_patrons": 350, "longitude": 144.9726850103448, "latitude": -37.81120210869503, "location": {"lon": 144.9726850103448, "lat": -37.81120210869503}},{"census_year": "2002", "block_id": 61, "property_id": "105716", "base_property_id": "105716", "building_address": "597-603 Lonsdale Street MELBOURNE 3000", "clue_small_area": "Melbourne (CBD)", "trading_name": "The Men's Gallery", "business_address": "597-603 Lonsdale Street MELBOURNE 3000", "number_of_patrons": 675, "longitude": 144.9545005101703, "latitude": -37.81490643957871, "location": {"lon": 144.9545005101703, "lat": -37.81490643957871}},{"census_year": "2002", "block_id": 64, "property_id": "104376", "base_property_id": "104376", "building_address": "14-20 A'Beckett Street MELBOURNE 3000", "clue_small_area": "Melbourne (CBD)", "trading_name": "Word Events", "business_address": "14-20 A'Beckett Street MELBOURNE 3000", "number_of_patrons": 200, "longitude": 144.96074103693925, "latitude": -37.81328770989657, "location": {"lon": 144.96074103693925, "lat": -37.81328770989657}},{"census_year": "2002", "block_id": 66, "property_id": "108550", "base_property_id": "108550", "building_address": "213-217 Russell Street MELBOURNE 3000", "clue_small_area": "Melbourne (CBD)", "trading_name": "Enka Karaoke Bar", "business_address": "Part Floor 1, 217 Russell Street MELBOURNE 3000", "number_of_patrons": 80, "longitude": 144.96724567257206, "latitude": -37.81156282279264, "location": {"lon": 144.96724567257206, "lat": -37.81156282279264}},{"census_year": "2002", "block_id": 78, "property_id": "103618", "base_property_id": "103618", "building_address": "242-284 Exhibition Street MELBOURNE 3000", "clue_small_area": "Melbourne (CBD)", "trading_name": "Coopers Inn", "business_address": "Shop 1, 242-284 Exhibition Street MELBOURNE 3000", "number_of_patrons": 400, "longitude": 144.96998500471204, "latitude": -37.809416385753934, "location": {"lon": 144.96998500471204, "lat": -37.809416385753934}},{"census_year": "2002", "block_id": 78, "property_id": "110716", "base_property_id": "105763", "building_address": "42-44 Lonsdale Street MELBOURNE 3000", "clue_small_area": "Melbourne (CBD)", "trading_name": "44 Bar", "business_address": "42-44 Lonsdale Street MELBOURNE 3000", "number_of_patrons": 260, "longitude": 144.971074722117, "latitude": -37.80914252179053, "location": {"lon": 144.971074722117, "lat": -37.80914252179053}},{"census_year": "2002", "block_id": 84, "property_id": "105449", "base_property_id": "105449", "building_address": "293-299 La Trobe Street MELBOURNE 3000", "clue_small_area": "Melbourne (CBD)", "trading_name": "Duke of Kent Hotel", "business_address": "293-299 La Trobe Street MELBOURNE 3000", "number_of_patrons": 160, "longitude": 144.9605182551698, "latitude": -37.81081585737349, "location": {"lon": 144.9605182551698, "lat": -37.81081585737349}},{"census_year": "2002", "block_id": 87, "property_id": "101023", "base_property_id": "101023", "building_address": "25 Bennetts Lane MELBOURNE 3000", "clue_small_area": "Melbourne (CBD)", "trading_name": "Bennetts Lane Jazz Club", "business_address": "25 Bennetts Lane MELBOURNE 3000", "number_of_patrons": 360, "longitude": 144.9675664368846, "latitude": -37.80889326950825, "location": {"lon": 144.9675664368846, "lat": -37.80889326950825}},{"census_year": "2002", "block_id": 95, "property_id": "109315", "base_property_id": "109315", "building_address": "407-409 Swanston Street MELBOURNE 3000", "clue_small_area": "Melbourne (CBD)", "trading_name": "Basement 407", "business_address": "Unit 1, Basement , 407 Swanston Street MELBOURNE 3000", "number_of_patrons": 150, "longitude": 144.963192113967, "latitude": -37.8089570116272, "location": {"lon": 144.963192113967, "lat": -37.8089570116272}},{"census_year": "2002", "block_id": 114, "property_id": "109493", "base_property_id": "109493", "building_address": "143-151 Therry Street MELBOURNE 3000", "clue_small_area": "Melbourne (CBD)", "trading_name": "Mercat Cross Hotel", "business_address": "143-151 Therry Street MELBOURNE 3000", "number_of_patrons": 230, "longitude": 144.9584044815746, "latitude": -37.80790537925659, "location": {"lon": 144.9584044815746, "lat": -37.80790537925659}},{"census_year": "2002", "block_id": 228, "property_id": "101450", "base_property_id": "101450", "building_address": "223-227 Canning Street CARLTON 3053", "clue_small_area": "Carlton", "trading_name": "Dan O'Connell Hotel", "business_address": "223 Canning Street CARLTON 3053", "number_of_patrons": 600, "longitude": 144.9733974847086, "latitude": -37.79303186454882, "location": {"lon": 144.9733974847086, "lat": -37.79303186454882}},{"census_year": "2002", "block_id": 270, "property_id": "104468", "base_property_id": "104468", "building_address": "156-292 Grattan Street PARKVILLE 3010", "clue_small_area": "Parkville", "trading_name": "University House", "business_address": "Grattan Street PARKVILLE 3010", "number_of_patrons": 611, "longitude": 144.9611927667791, "latitude": -37.796776921155825, "location": {"lon": 144.9611927667791, "lat": -37.796776921155825}},{"census_year": "2002", "block_id": 270, "property_id": "104468", "base_property_id": "104468", "building_address": "156-292 Grattan Street PARKVILLE 3010", "clue_small_area": "Parkville", "trading_name": "U Bar", "business_address": "Grattan Street PARKVILLE 3010", "number_of_patrons": 200, "longitude": 144.9611927667791, "latitude": -37.796776921155825, "location": {"lon": 144.9611927667791, "lat": -37.796776921155825}},{"census_year": "2002", "block_id": 315, "property_id": "100514", "base_property_id": "100514", "building_address": "204-206 Arden Street NORTH MELBOURNE 3051", "clue_small_area": "North Melbourne", "trading_name": "North Melbourne Football Club Social Club", "business_address": "33 Arden Street NORTH MELBOURNE 3051", "number_of_patrons": 210, "longitude": 144.9413101818877, "latitude": -37.79888820561025, "location": {"lon": 144.9413101818877, "lat": -37.79888820561025}},{"census_year": "2002", "block_id": 315, "property_id": "100514", "base_property_id": "100514", "building_address": "204-206 Arden Street NORTH MELBOURNE 3051", "clue_small_area": "North Melbourne", "trading_name": "Kanga Kasino", "business_address": "23 Arden Street NORTH MELBOURNE 3051", "number_of_patrons": 90, "longitude": 144.9413101818877, "latitude": -37.79888820561025, "location": {"lon": 144.9413101818877, "lat": -37.79888820561025}},{"census_year": "2002", "block_id": 369, "property_id": "103507", "base_property_id": "103507", "building_address": "86-90 Errol Street NORTH MELBOURNE 3051", "clue_small_area": "North Melbourne", "trading_name": "Court House Hotel", "business_address": "86-90 Errol Street NORTH MELBOURNE 3051", "number_of_patrons": 140, "longitude": 144.94996492010188, "latitude": -37.80287917339365, "location": {"lon": 144.94996492010188, "lat": -37.80287917339365}},{"census_year": "2002", "block_id": 377, "property_id": "102236", "base_property_id": "102236", "building_address": "56-58 Courtney Street NORTH MELBOURNE 3051", "clue_small_area": "North Melbourne", "trading_name": "The Castle Hotel", "business_address": "56 Courtney Street NORTH MELBOURNE 3051", "number_of_patrons": 317, "longitude": 144.95304334746442, "latitude": -37.800899770504216, "location": {"lon": 144.95304334746442, "lat": -37.800899770504216}},{"census_year": "2002", "block_id": 378, "property_id": "103818", "base_property_id": "103818", "building_address": "75-79 Flemington Road NORTH MELBOURNE 3051", "clue_small_area": "North Melbourne", "trading_name": "Redback Brewery Hotel", "business_address": "75 Flemington Road NORTH MELBOURNE 3051", "number_of_patrons": 670, "longitude": 144.95335716198912, "latitude": -37.79895204865818, "location": {"lon": 144.95335716198912, "lat": -37.79895204865818}},{"census_year": "2002", "block_id": 658, "property_id": "110266", "base_property_id": "110266", "building_address": "Brunton Avenue JOLIMONT 3002", "clue_small_area": "East Melbourne", "trading_name": "Spotless Services", "business_address": "Part 0-0 Brunton Avenue JOLIMONT 3002", "number_of_patrons": 2545, "longitude": 144.98340072111205, "latitude": -37.82004422483403, "location": {"lon": 144.98340072111205, "lat": -37.82004422483403}},{"census_year": "2002", "block_id": 753, "property_id": "110606", "base_property_id": "110380", "building_address": "3 Southgate Avenue SOUTHBANK 3006", "clue_small_area": "Southbank", "trading_name": "P J O'Briens Irish Pub", "business_address": "3 Southgate Avenue SOUTHBANK 3006", "number_of_patrons": 300, "longitude": 144.9663374737802, "latitude": -37.82071954088171, "location": {"lon": 144.9663374737802, "lat": -37.82071954088171}},{"census_year": "2002", "block_id": 760, "property_id": "108642", "base_property_id": "108642", "building_address": "497-503 St Kilda Road MELBOURNE 3004", "clue_small_area": "Melbourne (Remainder)", "trading_name": "Cafe Dom - The Granite Bar", "business_address": "Part Ground , 499 St Kilda Road MELBOURNE 3004", "number_of_patrons": 500, "longitude": 144.97908599467, "latitude": -37.84331889873595, "location": {"lon": 144.97908599467, "lat": -37.84331889873595}},{"census_year": "2002", "block_id": 859, "property_id": "109512", "base_property_id": "109512", "building_address": "146W-150W Toorak Road SOUTH YARRA 3141", "clue_small_area": "South Yarra", "trading_name": "United Kingdom Settlers Association", "business_address": "Front Floor 1, 146W Toorak Road SOUTH YARRA 3141", "number_of_patrons": 100, "longitude": 144.9843804943388, "latitude": -37.83764654440955, "location": {"lon": 144.9843804943388, "lat": -37.83764654440955}},{"census_year": "2003", "block_id": 14, "property_id": "103165", "base_property_id": "103165", "building_address": "1-5 Elizabeth Street MELBOURNE 3000", "clue_small_area": "Melbourne (CBD)", "trading_name": "Hosies Tavern", "business_address": "Unit 1, 1-5 Elizabeth Street MELBOURNE 3000", "number_of_patrons": 270, "longitude": 144.96461741084877, "latitude": -37.81805796983434, "location": {"lon": 144.96461741084877, "lat": -37.81805796983434}},{"census_year": "2003", "block_id": 15, "property_id": "103944", "base_property_id": "103944", "building_address": "277-279 Flinders Lane MELBOURNE 3000", "clue_small_area": "Melbourne (CBD)", "trading_name": "De Biers", "business_address": "Unit 1, Basement , 277 Flinders Lane MELBOURNE 3000", "number_of_patrons": 400, "longitude": 144.96530699086, "latitude": -37.81724194023457, "location": {"lon": 144.96530699086, "lat": -37.81724194023457}},{"census_year": "2003", "block_id": 15, "property_id": "109257", "base_property_id": "109257", "building_address": "1-7 Swanston Street MELBOURNE 3000", "clue_small_area": "Melbourne (CBD)", "trading_name": "Young & Jackson", "business_address": "1-7 Swanston Street MELBOURNE 3000", "number_of_patrons": 450, "longitude": 144.96703233636947, "latitude": -37.817357255280335, "location": {"lon": 144.96703233636947, "lat": -37.817357255280335}},{"census_year": "2003", "block_id": 32, "property_id": "102117", "base_property_id": "102117", "building_address": "500-514 Collins Street MELBOURNE 3000", "clue_small_area": "Melbourne (CBD)", "trading_name": "Menzies Tavern", "business_address": "Part Level 1, 525 Collins Street MELBOURNE 3000", "number_of_patrons": 250, "longitude": 144.9574852972072, "latitude": -37.81756404569752, "location": {"lon": 144.9574852972072, "lat": -37.81756404569752}},{"census_year": "2003", "block_id": 33, "property_id": "105933", "base_property_id": "105933", "building_address": "425-427 Little Collins Street MELBOURNE 3000", "clue_small_area": "Melbourne (CBD)", "trading_name": "The Irish Times", "business_address": "Ground , 425 Little Collins Street MELBOURNE 3000", "number_of_patrons": 170, "longitude": 144.9605449167531, "latitude": -37.816255721754686, "location": {"lon": 144.9605449167531, "lat": -37.816255721754686}},{"census_year": "2003", "block_id": 34, "property_id": "110669", "base_property_id": "110668", "building_address": "353 Little Collins Street MELBOURNE 3000", "clue_small_area": "Melbourne (CBD)", "trading_name": "Grosvenor Tavern", "business_address": "Basement , 25 Little Collins Street MELBOURNE 3000", "number_of_patrons": 230, "longitude": null, "latitude": null, "location": null},{"census_year": "2003", "block_id": 35, "property_id": "102141", "base_property_id": "102141", "building_address": "280-292 Collins Street MELBOURNE 3000", "clue_small_area": "Melbourne (CBD)", "trading_name": "The Charles Dickens Tavern", "business_address": "Basement , 290 Collins Street MELBOURNE 3000", "number_of_patrons": 450, "longitude": 144.96457927162226, "latitude": -37.81563097004982, "location": {"lon": 144.96457927162226, "lat": -37.81563097004982}},{"census_year": "2003", "block_id": 35, "property_id": "102143", "base_property_id": "102143", "building_address": "258-274 Collins Street MELBOURNE 3000", "clue_small_area": "Melbourne (CBD)", "trading_name": "Australia On Collins Bar", "business_address": "Shop 121, Basement , 260 Collins Street MELBOURNE 3000", "number_of_patrons": 11, "longitude": 144.96491857864146, "latitude": -37.81541503501324, "location": {"lon": 144.96491857864146, "lat": -37.81541503501324}},{"census_year": "2003", "block_id": 37, "property_id": "102158", "base_property_id": "102158", "building_address": "86-88 Collins Street MELBOURNE 3000", "clue_small_area": "Melbourne (CBD)", "trading_name": "Dr Martin's Tavern", "business_address": "86A Collins Street MELBOURNE 3000", "number_of_patrons": 291, "longitude": 144.97059378480083, "latitude": -37.8139380932959, "location": {"lon": 144.97059378480083, "lat": -37.8139380932959}},{"census_year": "2003", "block_id": 58, "property_id": "101238", "base_property_id": "101238", "building_address": "2-8 Bourke Street MELBOURNE 3000", "clue_small_area": "Melbourne (CBD)", "trading_name": "Imperial Hotel", "business_address": "2-8 Bourke Street MELBOURNE 3000", "number_of_patrons": 350, "longitude": 144.9726850103448, "latitude": -37.81120210869503, "location": {"lon": 144.9726850103448, "lat": -37.81120210869503}},{"census_year": "2003", "block_id": 61, "property_id": "105716", "base_property_id": "105716", "building_address": "597-603 Lonsdale Street MELBOURNE 3000", "clue_small_area": "Melbourne (CBD)", "trading_name": "The Men's Gallery", "business_address": "597-603 Lonsdale Street MELBOURNE 3000", "number_of_patrons": 675, "longitude": 144.9545005101703, "latitude": -37.81490643957871, "location": {"lon": 144.9545005101703, "lat": -37.81490643957871}},{"census_year": "2003", "block_id": 64, "property_id": "104376", "base_property_id": "104376", "building_address": "14-20 A'Beckett Street MELBOURNE 3000", "clue_small_area": "Melbourne (CBD)", "trading_name": "Word Events", "business_address": "14-20 A'Beckett Street MELBOURNE 3000", "number_of_patrons": 200, "longitude": 144.96074103693925, "latitude": -37.81328770989657, "location": {"lon": 144.96074103693925, "lat": -37.81328770989657}},{"census_year": "2003", "block_id": 71, "property_id": "105318", "base_property_id": "105318", "building_address": "277-287 King Street MELBOURNE 3000", "clue_small_area": "Melbourne (CBD)", "trading_name": "Golden Age Hotel", "business_address": "277-287 King Street MELBOURNE 3000", "number_of_patrons": 200, "longitude": 144.95420939183657, "latitude": -37.81367692848996, "location": {"lon": 144.95420939183657, "lat": -37.81367692848996}},{"census_year": "2003", "block_id": 72, "property_id": "110106", "base_property_id": "110106", "building_address": "263-267 William Street MELBOURNE 3000", "clue_small_area": "Melbourne (CBD)", "trading_name": "Metropolitan On William Bar & Restaurant", "business_address": "263-267 William Street MELBOURNE 3000", "number_of_patrons": 300, "longitude": 144.95659301618502, "latitude": -37.81292514670666, "location": {"lon": 144.95659301618502, "lat": -37.81292514670666}},{"census_year": "2003", "block_id": 74, "property_id": "106017", "base_property_id": "106017", "building_address": "391-393 Little Lonsdale Street MELBOURNE 3000", "clue_small_area": "Melbourne (CBD)", "trading_name": "La La Land", "business_address": "Level 1, 391-0 Little Lonsdale Street MELBOURNE 3000", "number_of_patrons": 175, "longitude": 144.9603507674639, "latitude": -37.8118754125278, "location": {"lon": 144.9603507674639, "lat": -37.8118754125278}},{"census_year": "2003", "block_id": 78, "property_id": "103618", "base_property_id": "103618", "building_address": "242-284 Exhibition Street MELBOURNE 3000", "clue_small_area": "Melbourne (CBD)", "trading_name": "Coopers Inn", "business_address": "Shop 1, 242-284 Exhibition Street MELBOURNE 3000", "number_of_patrons": 400, "longitude": 144.96998500471204, "latitude": -37.809416385753934, "location": {"lon": 144.96998500471204, "lat": -37.809416385753934}},{"census_year": "2003", "block_id": 78, "property_id": "108991", "base_property_id": "108991", "building_address": "267-271 Spring Street MELBOURNE 3000", "clue_small_area": "Melbourne (CBD)", "trading_name": "Elm's Family Hotel", "business_address": "267 Spring Street MELBOURNE 3000", "number_of_patrons": 200, "longitude": 144.97145390976615, "latitude": -37.808610073043155, "location": {"lon": 144.97145390976615, "lat": -37.808610073043155}},{"census_year": "2003", "block_id": 84, "property_id": "103207", "base_property_id": "103207", "building_address": "315-321 Elizabeth Street MELBOURNE 3000", "clue_small_area": "Melbourne (CBD)", "trading_name": "Tabaret At Melbourne Central", "business_address": "Ground  & Levels 1, 315-321 Elizabeth Street MELBOURNE 3000", "number_of_patrons": 250, "longitude": 144.96148178405576, "latitude": -37.81125084399573, "location": {"lon": 144.96148178405576, "lat": -37.81125084399573}},{"census_year": "2003", "block_id": 84, "property_id": "105449", "base_property_id": "105449", "building_address": "293-299 La Trobe Street MELBOURNE 3000", "clue_small_area": "Melbourne (CBD)", "trading_name": "Duke of Kent Hotel", "business_address": "293-299 La Trobe Street MELBOURNE 3000", "number_of_patrons": 160, "longitude": 144.9605182551698, "latitude": -37.81081585737349, "location": {"lon": 144.9605182551698, "lat": -37.81081585737349}},{"census_year": "2003", "block_id": 85, "property_id": "102597", "base_property_id": "102597", "building_address": "2-20 Drewery Place MELBOURNE 3000", "clue_small_area": "Melbourne (CBD)", "trading_name": "Embassy Bar", "business_address": "9-13 Drewery Place MELBOURNE 3000", "number_of_patrons": 303, "longitude": 144.96397969116956, "latitude": -37.811304482155336, "location": {"lon": 144.96397969116956, "lat": -37.811304482155336}},{"census_year": "2003", "block_id": 105, "property_id": "103301", "base_property_id": "103301", "building_address": "442-450 Elizabeth Street MELBOURNE 3000", "clue_small_area": "Melbourne (CBD)", "trading_name": "Melbourne International Backpackers", "business_address": "442-450 Elizabeth Street MELBOURNE 3000", "number_of_patrons": 365, "longitude": 144.96086818659967, "latitude": -37.808309445012966, "location": {"lon": 144.96086818659967, "lat": -37.808309445012966}},{"census_year": "2003", "block_id": 105, "property_id": "109317", "base_property_id": "109317", "building_address": "427-433 Swanston Street MELBOURNE 3000", "clue_small_area": "Melbourne (CBD)", "trading_name": "The Oxford Scholar Hotel", "business_address": "427-433 Swanston Street MELBOURNE 3000", "number_of_patrons": 486, "longitude": 144.96293756796908, "latitude": -37.80846017511618, "location": {"lon": 144.96293756796908, "lat": -37.80846017511618}},{"census_year": "2003", "block_id": 218, "property_id": "106222", "base_property_id": "106222", "building_address": "270-276 Lygon Street CARLTON 3053", "clue_small_area": "Carlton", "trading_name": "University Hotel", "business_address": "Part Ground , 272-276 Lygon Street CARLTON 3053", "number_of_patrons": 111, "longitude": 144.9672535310201, "latitude": -37.8005282520571, "location": {"lon": 144.9672535310201, "lat": -37.8005282520571}},{"census_year": "2003", "block_id": 247, "property_id": "106238", "base_property_id": "106238", "building_address": "192-202 Lygon Street CARLTON 3053", "clue_small_area": "Carlton", "trading_name": "Players On Lygon", "business_address": "Ground , 200 Lygon Street CARLTON 3053", "number_of_patrons": 200, "longitude": 144.96699165611432, "latitude": -37.80254093983895, "location": {"lon": 144.96699165611432, "lat": -37.80254093983895}},{"census_year": "2003", "block_id": 267, "property_id": "106251", "base_property_id": "106251", "building_address": "66-88 Lygon Street CARLTON 3053", "clue_small_area": "Carlton", "trading_name": "Lagers On Lygon", "business_address": "Part Ground , 66 Lygon Street CARLTON 3053", "number_of_patrons": 80, "longitude": 144.9665840839516, "latitude": -37.80530454659966, "location": {"lon": 144.9665840839516, "lat": -37.80530454659966}},{"census_year": "2003", "block_id": 270, "property_id": "104468", "base_property_id": "104468", "building_address": "156-292 Grattan Street PARKVILLE 3010", "clue_small_area": "Parkville", "trading_name": "Deep Dish Bar & Cafe", "business_address": "Ground , 156-292 Grattan Street PARKVILLE 3010", "number_of_patrons": 400, "longitude": 144.9611927667791, "latitude": -37.796776921155825, "location": {"lon": 144.9611927667791, "lat": -37.796776921155825}},{"census_year": "2003", "block_id": 270, "property_id": "104468", "base_property_id": "104468", "building_address": "156-292 Grattan Street PARKVILLE 3010", "clue_small_area": "Parkville", "trading_name": "INU Bar & Restuarant", "business_address": "Building 130, Part Ground , 156-292 Grattan Street PARKVILLE 3010", "number_of_patrons": 200, "longitude": 144.9611927667791, "latitude": -37.796776921155825, "location": {"lon": 144.9611927667791, "lat": -37.796776921155825}},{"census_year": "2003", "block_id": 375, "property_id": "103810", "base_property_id": "103810", "building_address": "5-17 Flemington Road NORTH MELBOURNE 3051", "clue_small_area": "North Melbourne", "trading_name": "The Chifley On Flemington", "business_address": "5-17 Flemington Road NORTH MELBOURNE 3051", "number_of_patrons": 230, "longitude": 144.9558564154721, "latitude": -37.80143739836391, "location": {"lon": 144.9558564154721, "lat": -37.80143739836391}},{"census_year": "2003", "block_id": 658, "property_id": "110266", "base_property_id": "110266", "building_address": "Brunton Avenue JOLIMONT 3002", "clue_small_area": "East Melbourne", "trading_name": "Spotless Services", "business_address": "Part  Brunton Avenue JOLIMONT 3002", "number_of_patrons": 2545, "longitude": 144.98319738818486, "latitude": -37.82000821319277, "location": {"lon": 144.98319738818486, "lat": -37.82000821319277}},{"census_year": "2003", "block_id": 710, "property_id": "108617", "base_property_id": "108617", "building_address": "375-385 St Kilda Road MELBOURNE 3004", "clue_small_area": "Melbourne (Remainder)", "trading_name": "Royce On St Kilda Road", "business_address": "375 St Kilda Road MELBOURNE 3004", "number_of_patrons": 120, "longitude": 144.97555072266726, "latitude": -37.83508390239305, "location": {"lon": 144.97555072266726, "lat": -37.83508390239305}},{"census_year": "2003", "block_id": 753, "property_id": "110606", "base_property_id": "110380", "building_address": "3 Southgate Avenue SOUTHBANK 3006", "clue_small_area": "Southbank", "trading_name": "P J O'Briens Irish Pub", "business_address": "3 Southgate Avenue SOUTHBANK 3006", "number_of_patrons": 300, "longitude": 144.9663374737802, "latitude": -37.82071954088171, "location": {"lon": 144.9663374737802, "lat": -37.82071954088171}},{"census_year": "2003", "block_id": 1103, "property_id": "558180", "base_property_id": "558180", "building_address": "94-148 Harbour Esplanade DOCKLANDS 3008", "clue_small_area": "Docklands", "trading_name": "Locker Room Club Bar", "business_address": "Part Level 1, 140 Harbour Esplanade DOCKLANDS 3008", "number_of_patrons": 500, "longitude": 144.9475184354052, "latitude": -37.81649272044851, "location": {"lon": 144.9475184354052, "lat": -37.81649272044851}},{"census_year": "2004", "block_id": 6, "property_id": "578321", "base_property_id": "573333", "building_address": "2 Swanston Street MELBOURNE 3000", "clue_small_area": "Melbourne (CBD)", "trading_name": "The Wine Bar", "business_address": "Tenancy 23, 2 Swanston Street MELBOURNE 3000", "number_of_patrons": 355, "longitude": 144.96995165649258, "latitude": -37.817778861627275, "location": {"lon": 144.96995165649258, "lat": -37.817778861627275}},{"census_year": "2004", "block_id": 11, "property_id": "103993", "base_property_id": "103993", "building_address": "508-514 Flinders Street MELBOURNE 3000", "clue_small_area": "Melbourne (CBD)", "trading_name": "Waterside Hotel", "business_address": "508-514 Flinders Street MELBOURNE 3000", "number_of_patrons": 324, "longitude": 144.95715992705334, "latitude": -37.820167373238576, "location": {"lon": 144.95715992705334, "lat": -37.820167373238576}},{"census_year": "2004", "block_id": 14, "property_id": "101099", "base_property_id": "101099", "building_address": "16-26 Bond Street MELBOURNE 3000", "clue_small_area": "Melbourne (CBD)", "trading_name": "Bond Lounge", "business_address": "Ground , 20-24 Bond Street MELBOURNE 3000", "number_of_patrons": 500, "longitude": 144.96306731565613, "latitude": -37.818147200690255, "location": {"lon": 144.96306731565613, "lat": -37.818147200690255}},{"census_year": "2004", "block_id": 14, "property_id": "103172", "base_property_id": "103172", "building_address": "31-39 Elizabeth Street MELBOURNE 3000", "clue_small_area": "Melbourne (CBD)", "trading_name": "The Joint", "business_address": "31-39 Elizabeth Street MELBOURNE 3000", "number_of_patrons": 329, "longitude": 144.964321660097, "latitude": -37.81742610667125, "location": {"lon": 144.964321660097, "lat": -37.81742610667125}},{"census_year": "2004", "block_id": 14, "property_id": "103172", "base_property_id": "103172", "building_address": "31-39 Elizabeth Street MELBOURNE 3000", "clue_small_area": "Melbourne (CBD)", "trading_name": "The Green Room", "business_address": "35-0 Elizabeth Street MELBOURNE 3000", "number_of_patrons": 225, "longitude": 144.964321660097, "latitude": -37.81742610667125, "location": {"lon": 144.964321660097, "lat": -37.81742610667125}},{"census_year": "2004", "block_id": 14, "property_id": "103951", "base_property_id": "103951", "building_address": "341-347 Flinders Lane MELBOURNE 3000", "clue_small_area": "Melbourne (CBD)", "trading_name": "Bull And Bear Tavern", "business_address": "347 Flinders Lane MELBOURNE 3000", "number_of_patrons": 180, "longitude": 144.96304046635782, "latitude": -37.81782473321002, "location": {"lon": 144.96304046635782, "lat": -37.81782473321002}},{"census_year": "2004", "block_id": 15, "property_id": "103944", "base_property_id": "103944", "building_address": "277-279 Flinders Lane MELBOURNE 3000", "clue_small_area": "Melbourne (CBD)", "trading_name": "De Biers", "business_address": "Unit 1, Basement , 277 Flinders Lane MELBOURNE 3000", "number_of_patrons": 400, "longitude": 144.96530699086, "latitude": -37.81724194023457, "location": {"lon": 144.96530699086, "lat": -37.81724194023457}},{"census_year": "2004", "block_id": 15, "property_id": "109257", "base_property_id": "109257", "building_address": "1-7 Swanston Street MELBOURNE 3000", "clue_small_area": "Melbourne (CBD)", "trading_name": "Young & Jackson", "business_address": "1-7 Swanston Street MELBOURNE 3000", "number_of_patrons": 470, "longitude": 144.96703233636947, "latitude": -37.817357255280335, "location": {"lon": 144.96703233636947, "lat": -37.817357255280335}},{"census_year": "2004", "block_id": 25, "property_id": "103964", "base_property_id": "103964", "building_address": "30-44 Manchester Lane MELBOURNE 3000", "clue_small_area": "Melbourne (CBD)", "trading_name": "Manchester Lane", "business_address": "Ground , 236 Manchester Lane MELBOURNE 3000", "number_of_patrons": 250, "longitude": 144.9662091829816, "latitude": -37.81642295306987, "location": {"lon": 144.9662091829816, "lat": -37.81642295306987}},{"census_year": "2004", "block_id": 31, "property_id": "102113", "base_property_id": "102113", "building_address": "546-566 Collins Street MELBOURNE 3000", "clue_small_area": "Melbourne (CBD)", "trading_name": "Nero Bar", "business_address": "546-566 Collins Street MELBOURNE 3000", "number_of_patrons": 80, "longitude": 144.95585368742184, "latitude": -37.818245884887304, "location": {"lon": 144.95585368742184, "lat": -37.818245884887304}},{"census_year": "2004", "block_id": 46, "property_id": "101130", "base_property_id": "101130", "building_address": "193-199 Bourke Street MELBOURNE 3000", "clue_small_area": "Melbourne (CBD)", "trading_name": "The Carlton Hotel", "business_address": "Floor 1, 193-199 Bourke Street MELBOURNE 3000", "number_of_patrons": 200, "longitude": 144.9676551111507, "latitude": -37.81320575010734, "location": {"lon": 144.9676551111507, "lat": -37.81320575010734}},{"census_year": "2004", "block_id": 48, "property_id": "101109", "base_property_id": "101109", "building_address": "39-43 Bourke Street MELBOURNE 3000", "clue_small_area": "Melbourne (CBD)", "trading_name": "Spleen Central", "business_address": "41 Bourke Street MELBOURNE 3000", "number_of_patrons": 100, "longitude": 144.9720552011901, "latitude": -37.81193701505745, "location": {"lon": 144.9720552011901, "lat": -37.81193701505745}},{"census_year": "2004", "block_id": 48, "property_id": "108983", "base_property_id": "108983", "building_address": "103-137 Spring Street MELBOURNE 3000", "clue_small_area": "Melbourne (CBD)", "trading_name": "Hard Rock Cafe", "business_address": "1 Spring Street MELBOURNE 3000", "number_of_patrons": 500, "longitude": 144.9729329718854, "latitude": -37.811995901555065, "location": {"lon": 144.9729329718854, "lat": -37.811995901555065}},{"census_year": "2004", "block_id": 56, "property_id": "101207", "base_property_id": "101207", "building_address": "184-186 Bourke Street MELBOURNE 3000", "clue_small_area": "Melbourne (CBD)", "trading_name": "Hollywood Karaoke Bar", "business_address": "Level 1, 184-186 Bourke Street MELBOURNE 3000", "number_of_patrons": 204, "longitude": 144.96769718945876, "latitude": -37.812677389205746, "location": {"lon": 144.96769718945876, "lat": -37.812677389205746}},{"census_year": "2004", "block_id": 57, "property_id": "101217", "base_property_id": "101217", "building_address": "124-128 Bourke Street MELBOURNE 3000", "clue_small_area": "Melbourne (CBD)", "trading_name": "Welcome Stranger", "business_address": "Ground , 124-128 Bourke Street MELBOURNE 3000", "number_of_patrons": 350, "longitude": 144.9692738016126, "latitude": -37.812071111195024, "location": {"lon": 144.9692738016126, "lat": -37.812071111195024}},{"census_year": "2004", "block_id": 58, "property_id": "103621", "base_property_id": "103621", "building_address": "174-192 Exhibition Street MELBOURNE 3000", "clue_small_area": "Melbourne (CBD)", "trading_name": "Rydges Melbourne Hotel", "business_address": "Part Ground , 174-192 Exhibition Street MELBOURNE 3000", "number_of_patrons": 100, "longitude": 144.97060728433877, "latitude": -37.811220324974286, "location": {"lon": 144.97060728433877, "lat": -37.811220324974286}},{"census_year": "2004", "block_id": 58, "property_id": "105657", "base_property_id": "105657", "building_address": "21 Liverpool Street MELBOURNE 3000", "clue_small_area": "Melbourne (CBD)", "trading_name": "Double Happiness Bar", "business_address": "21 Liverpool Street MELBOURNE 3000", "number_of_patrons": 50, "longitude": 144.97127400479184, "latitude": -37.81118230548321, "location": {"lon": 144.97127400479184, "lat": -37.81118230548321}},{"census_year": "2004", "block_id": 58, "property_id": "105828", "base_property_id": "105828", "building_address": "19-25 Little Bourke Street MELBOURNE 3000", "clue_small_area": "Melbourne (CBD)", "trading_name": "Cheers On Little Bourke Street", "business_address": "19 Little Bourke Street MELBOURNE 3000", "number_of_patrons": 350, "longitude": 144.97199956168686, "latitude": -37.8107442049127, "location": {"lon": 144.97199956168686, "lat": -37.8107442049127}},{"census_year": "2004", "block_id": 74, "property_id": "106017", "base_property_id": "106017", "building_address": "391-393 Little Lonsdale Street MELBOURNE 3000", "clue_small_area": "Melbourne (CBD)", "trading_name": "La La Land", "business_address": "Level 1, 391 Little Lonsdale Street MELBOURNE 3000", "number_of_patrons": 175, "longitude": 144.9603507674639, "latitude": -37.8118754125278, "location": {"lon": 144.9603507674639, "lat": -37.8118754125278}},{"census_year": "2004", "block_id": 78, "property_id": "108991", "base_property_id": "108991", "building_address": "267-271 Spring Street MELBOURNE 3000", "clue_small_area": "Melbourne (CBD)", "trading_name": "Elm's Family Hotel", "business_address": "Part 267-271 Spring Street MELBOURNE 3000", "number_of_patrons": 200, "longitude": 144.97145390976615, "latitude": -37.808610073043155, "location": {"lon": 144.97145390976615, "lat": -37.808610073043155}},{"census_year": "2004", "block_id": 85, "property_id": "102597", "base_property_id": "102597", "building_address": "2-20 Drewery Place MELBOURNE 3000", "clue_small_area": "Melbourne (CBD)", "trading_name": "Embassy Bar & Double Bar", "business_address": "Gnd & Bmt , 9-13 Drewery Place MELBOURNE 3000", "number_of_patrons": 303, "longitude": 144.96397969116956, "latitude": -37.811304482155336, "location": {"lon": 144.96397969116956, "lat": -37.811304482155336}},{"census_year": "2004", "block_id": 97, "property_id": "103615", "base_property_id": "103615", "building_address": "333-351 Exhibition Street MELBOURNE 3000", "clue_small_area": "Melbourne (CBD)", "trading_name": "The Owl & The Pussycat", "business_address": "Shop 2, Ground , 333 Exhibition Street MELBOURNE 3000", "number_of_patrons": 100, "longitude": 144.96806936930756, "latitude": -37.80780226572104, "location": {"lon": 144.96806936930756, "lat": -37.80780226572104}},{"census_year": "2004", "block_id": 114, "property_id": "109493", "base_property_id": "109493", "building_address": "143-151 Therry Street MELBOURNE 3000", "clue_small_area": "Melbourne (CBD)", "trading_name": "Mercat Cross Hotel", "business_address": "143-151 Therry Street MELBOURNE 3000", "number_of_patrons": 230, "longitude": 144.9584044815746, "latitude": -37.80790537925659, "location": {"lon": 144.9584044815746, "lat": -37.80790537925659}},{"census_year": "2004", "block_id": 214, "property_id": "106186", "base_property_id": "106186", "building_address": "414-422 Lygon Street CARLTON 3053", "clue_small_area": "Carlton", "trading_name": "Percys Bar & Bistro", "business_address": "414-422 Lygon Street CARLTON 3053", "number_of_patrons": 120, "longitude": 144.96782181585178, "latitude": -37.79694678651363, "location": {"lon": 144.96782181585178, "lat": -37.79694678651363}},{"census_year": "2004", "block_id": 217, "property_id": "103102", "base_property_id": "103102", "building_address": "171-175 Elgin Street CARLTON 3053", "clue_small_area": "Carlton", "trading_name": "Pugg Mahones", "business_address": "171-175 Elgin Street CARLTON 3053", "number_of_patrons": 500, "longitude": 144.96871691208585, "latitude": -37.797507504118016, "location": {"lon": 144.96871691208585, "lat": -37.797507504118016}},{"census_year": "2004", "block_id": 228, "property_id": "101450", "base_property_id": "101450", "building_address": "223-227 Canning Street CARLTON 3053", "clue_small_area": "Carlton", "trading_name": "Dan O'Connell Hotel", "business_address": "223-227 Canning Street CARLTON 3053", "number_of_patrons": 600, "longitude": 144.9733974847086, "latitude": -37.79303186454882, "location": {"lon": 144.9733974847086, "lat": -37.79303186454882}},{"census_year": "2004", "block_id": 247, "property_id": "106238", "base_property_id": "106238", "building_address": "192-202 Lygon Street CARLTON 3053", "clue_small_area": "Carlton", "trading_name": "Players On Lygon", "business_address": "Ground , 200 Lygon Street CARLTON 3053", "number_of_patrons": 200, "longitude": 144.96699165611432, "latitude": -37.80254093983895, "location": {"lon": 144.96699165611432, "lat": -37.80254093983895}},{"census_year": "2004", "block_id": 252, "property_id": "106244", "base_property_id": "106244", "building_address": "160-162 Lygon Street CARLTON 3053", "clue_small_area": "Carlton", "trading_name": "Bar Centrale", "business_address": "Ground , 160-162 Lygon Street CARLTON 3053", "number_of_patrons": 500, "longitude": 144.96677971226654, "latitude": -37.80344268484407, "location": {"lon": 144.96677971226654, "lat": -37.80344268484407}},{"census_year": "2004", "block_id": 255, "property_id": "109366", "base_property_id": "109366", "building_address": "594-600 Swanston Street CARLTON 3053", "clue_small_area": "Carlton", "trading_name": "Plough and Harrow Hotel", "business_address": "125-127 Swanston Street CARLTON 3053", "number_of_patrons": 400, "longitude": 144.96395480388765, "latitude": -37.80277137275811, "location": {"lon": 144.96395480388765, "lat": -37.80277137275811}},{"census_year": "2004", "block_id": 270, "property_id": "104468", "base_property_id": "104468", "building_address": "156-292 Grattan Street PARKVILLE 3010", "clue_small_area": "Parkville", "trading_name": "Deep Dish Bar & Cafe", "business_address": "Ground , 156-292 Grattan Street PARKVILLE 3010", "number_of_patrons": 400, "longitude": 144.9611927667791, "latitude": -37.796776921155825, "location": {"lon": 144.9611927667791, "lat": -37.796776921155825}},{"census_year": "2004", "block_id": 355, "property_id": "105636", "base_property_id": "105636", "building_address": "46-50 Leveson Street NORTH MELBOURNE 3051", "clue_small_area": "North Melbourne", "trading_name": "The Leveson", "business_address": "46-50 Leveson Street NORTH MELBOURNE 3051", "number_of_patrons": 400, "longitude": 144.95146865346058, "latitude": -37.80370161232632, "location": {"lon": 144.95146865346058, "lat": -37.80370161232632}},{"census_year": "2004", "block_id": 375, "property_id": "103810", "base_property_id": "103810", "building_address": "5-17 Flemington Road NORTH MELBOURNE 3051", "clue_small_area": "North Melbourne", "trading_name": "The Chifley On Flemington", "business_address": "5-17 Flemington Road NORTH MELBOURNE 3051", "number_of_patrons": 230, "longitude": 144.9558564154721, "latitude": -37.80143739836391, "location": {"lon": 144.9558564154721, "lat": -37.80143739836391}},{"census_year": "2004", "block_id": 378, "property_id": "103818", "base_property_id": "103818", "building_address": "75-79 Flemington Road NORTH MELBOURNE 3051", "clue_small_area": "North Melbourne", "trading_name": "Redback Brewery Hotel", "business_address": "Part Gnd & Flr1 , 75-79 Flemington Road NORTH MELBOURNE 3051", "number_of_patrons": 650, "longitude": 144.95335716198912, "latitude": -37.79895204865818, "location": {"lon": 144.95335716198912, "lat": -37.79895204865818}},{"census_year": "2004", "block_id": 435, "property_id": "107481", "base_property_id": "107481", "building_address": "65-67 Peel Street WEST MELBOURNE 3003", "clue_small_area": "West Melbourne (Residential)", "trading_name": "Loki Bar", "business_address": "65-67 Peel Street WEST MELBOURNE 3003", "number_of_patrons": 140, "longitude": 144.95550681833367, "latitude": -37.806669084113175, "location": {"lon": 144.95550681833367, "lat": -37.806669084113175}},{"census_year": "2004", "block_id": 618, "property_id": "109993", "base_property_id": "109993", "building_address": "178-226 Wellington Parade EAST MELBOURNE 3002", "clue_small_area": "East Melbourne", "trading_name": "MCG Worx", "business_address": "180 Wellington Parade EAST MELBOURNE 3002", "number_of_patrons": 144, "longitude": 144.98350791701154, "latitude": -37.81582439332249, "location": {"lon": 144.98350791701154, "lat": -37.81582439332249}},{"census_year": "2004", "block_id": 658, "property_id": "110266", "base_property_id": "110266", "building_address": "Brunton Avenue JOLIMONT 3002", "clue_small_area": "East Melbourne", "trading_name": "Spotless Services", "business_address": "Part  Brunton Avenue JOLIMONT 3002", "number_of_patrons": 2545, "longitude": 144.98319738818486, "latitude": -37.82000821319277, "location": {"lon": 144.98319738818486, "lat": -37.82000821319277}},{"census_year": "2004", "block_id": 753, "property_id": "110606", "base_property_id": "110380", "building_address": "3 Southgate Avenue SOUTHBANK 3006", "clue_small_area": "Southbank", "trading_name": "P J O'Briens Irish Pub", "business_address": "Shop 14, Ground , 3 Southgate Avenue SOUTHBANK 3006", "number_of_patrons": 300, "longitude": 144.9663374737802, "latitude": -37.82071954088171, "location": {"lon": 144.9663374737802, "lat": -37.82071954088171}},{"census_year": "2004", "block_id": 807, "property_id": "108054", "base_property_id": "108054", "building_address": "40-56 Queens Bridge Street SOUTHBANK 3006", "clue_small_area": "Southbank", "trading_name": "Crown Promenade Hotel", "business_address": "40-56 Queens Bridge Street SOUTHBANK 3006", "number_of_patrons": 150, "longitude": 144.96002875563994, "latitude": -37.82398207347474, "location": {"lon": 144.96002875563994, "lat": -37.82398207347474}},{"census_year": "2004", "block_id": 859, "property_id": "109512", "base_property_id": "109512", "building_address": "146W-150W Toorak Road SOUTH YARRA 3141", "clue_small_area": "South Yarra", "trading_name": "United Kingdom Settlers Association", "business_address": "Front Floor 1, 146W Toorak Road SOUTH YARRA 3141", "number_of_patrons": 100, "longitude": 144.9843804943388, "latitude": -37.83764654440955, "location": {"lon": 144.9843804943388, "lat": -37.83764654440955}},{"census_year": "2004", "block_id": 861, "property_id": "102503", "base_property_id": "102503", "building_address": "161-173 Domain Road SOUTH YARRA 3141", "clue_small_area": "South Yarra", "trading_name": "Botanical Hotel", "business_address": "Unit 5, 171 Domain Road SOUTH YARRA 3141", "number_of_patrons": 245, "longitude": 144.98170944683866, "latitude": -37.834318199305386, "location": {"lon": 144.98170944683866, "lat": -37.834318199305386}},{"census_year": "2005", "block_id": 11, "property_id": "108971", "base_property_id": "108971", "building_address": "561-585 Flinders Lane MELBOURNE 3000", "clue_small_area": "Melbourne (CBD)", "trading_name": "Holiday Inn On Flinders Melbourne", "business_address": "561-585 Flinders Lane MELBOURNE 3000", "number_of_patrons": 100, "longitude": 144.95511371743692, "latitude": -37.820201437795866, "location": {"lon": 144.95511371743692, "lat": -37.820201437795866}},{"census_year": "2005", "block_id": 13, "property_id": "108058", "base_property_id": "108058", "building_address": "7-11 Queen Street MELBOURNE 3000", "clue_small_area": "Melbourne (CBD)", "trading_name": "The Bliss Lounge", "business_address": "Basement , 11 Queen Street MELBOURNE 3000", "number_of_patrons": 210, "longitude": 144.9619565192058, "latitude": -37.81862081553311, "location": {"lon": 144.9619565192058, "lat": -37.81862081553311}},{"census_year": "2005", "block_id": 14, "property_id": "103165", "base_property_id": "103165", "building_address": "1-5 Elizabeth Street MELBOURNE 3000", "clue_small_area": "Melbourne (CBD)", "trading_name": "Hosies Tavern", "business_address": "288 Elizabeth Street MELBOURNE 3000", "number_of_patrons": 160, "longitude": 144.96461741084877, "latitude": -37.81805796983434, "location": {"lon": 144.96461741084877, "lat": -37.81805796983434}},{"census_year": "2005", "block_id": 14, "property_id": "103172", "base_property_id": "103172", "building_address": "31-39 Elizabeth Street MELBOURNE 3000", "clue_small_area": "Melbourne (CBD)", "trading_name": "The Green Room", "business_address": "35 Elizabeth Street MELBOURNE 3000", "number_of_patrons": 225, "longitude": 144.964321660097, "latitude": -37.81742610667125, "location": {"lon": 144.964321660097, "lat": -37.81742610667125}},{"census_year": "2005", "block_id": 15, "property_id": "109257", "base_property_id": "109257", "building_address": "1-7 Swanston Street MELBOURNE 3000", "clue_small_area": "Melbourne (CBD)", "trading_name": "Young & Jackson", "business_address": "1-7 Swanston Street MELBOURNE 3000", "number_of_patrons": 470, "longitude": 144.96703233636947, "latitude": -37.817357255280335, "location": {"lon": 144.96703233636947, "lat": -37.817357255280335}},{"census_year": "2005", "block_id": 16, "property_id": "103938", "base_property_id": "103938", "building_address": "187 Flinders Lane MELBOURNE 3000", "clue_small_area": "Melbourne (CBD)", "trading_name": "Adelphi Hotel", "business_address": "187 Flinders Lane MELBOURNE 3000", "number_of_patrons": 80, "longitude": 144.9683846004515, "latitude": -37.81635974400108, "location": {"lon": 144.9683846004515, "lat": -37.81635974400108}},{"census_year": "2005", "block_id": 17, "property_id": "103924", "base_property_id": "103924", "building_address": "107-109 Flinders Lane MELBOURNE 3000", "clue_small_area": "Melbourne (CBD)", "trading_name": "Bisq Cafeteria", "business_address": "Unit 1, Bmt & Gnd , 107 Flinders Lane MELBOURNE 3000", "number_of_patrons": 200, "longitude": 144.97084378379822, "latitude": -37.81560786996647, "location": {"lon": 144.97084378379822, "lat": -37.81560786996647}},{"census_year": "2005", "block_id": 25, "property_id": "101789", "base_property_id": "101789", "building_address": "252-254 Flinders Lane MELBOURNE 3000", "clue_small_area": "Melbourne (CBD)", "trading_name": "Hell's Kitchen", "business_address": "Mezzanine , 20A Flinders Lane MELBOURNE 3000", "number_of_patrons": 55, "longitude": 144.96560596517924, "latitude": -37.816604228128824, "location": {"lon": 144.96560596517924, "lat": -37.816604228128824}},{"census_year": "2005", "block_id": 25, "property_id": "103964", "base_property_id": "103964", "building_address": "30-44 Manchester Lane MELBOURNE 3000", "clue_small_area": "Melbourne (CBD)", "trading_name": "Manchester Lane", "business_address": "36 Manchester Lane MELBOURNE 3000", "number_of_patrons": 250, "longitude": 144.9662091829816, "latitude": -37.81642295306987, "location": {"lon": 144.9662091829816, "lat": -37.81642295306987}},{"census_year": "2005", "block_id": 33, "property_id": "100727", "base_property_id": "100727", "building_address": "5-9 Bank Place MELBOURNE 3000", "clue_small_area": "Melbourne (CBD)", "trading_name": "Mitre Tavern", "business_address": "5-9 Bank Place MELBOURNE 3000", "number_of_patrons": 300, "longitude": 144.96029792995742, "latitude": -37.816805469325374, "location": {"lon": 144.96029792995742, "lat": -37.816805469325374}},{"census_year": "2005", "block_id": 48, "property_id": "108983", "base_property_id": "108983", "building_address": "103-137 Spring Street MELBOURNE 3000", "clue_small_area": "Melbourne (CBD)", "trading_name": "Hard Rock Cafe", "business_address": "1 Spring Street MELBOURNE 3000", "number_of_patrons": 500, "longitude": 144.9729329718854, "latitude": -37.811995901555065, "location": {"lon": 144.9729329718854, "lat": -37.811995901555065}},{"census_year": "2005", "block_id": 57, "property_id": "101216", "base_property_id": "101216", "building_address": "21-25 Croft Alley MELBOURNE 3000", "clue_small_area": "Melbourne (CBD)", "trading_name": "The Croft Institute", "business_address": "21-25 Croft Alley MELBOURNE 3000", "number_of_patrons": 250, "longitude": 144.9690969005816, "latitude": -37.812064674892135, "location": {"lon": 144.9690969005816, "lat": -37.812064674892135}},{"census_year": "2005", "block_id": 58, "property_id": "103621", "base_property_id": "103621", "building_address": "174-192 Exhibition Street MELBOURNE 3000", "clue_small_area": "Melbourne (CBD)", "trading_name": "CBD Cafe Bar", "business_address": "Part Ground , 174-192 Exhibition Street MELBOURNE 3000", "number_of_patrons": 190, "longitude": 144.97060728433877, "latitude": -37.811220324974286, "location": {"lon": 144.97060728433877, "lat": -37.811220324974286}},{"census_year": "2005", "block_id": 61, "property_id": "105716", "base_property_id": "105716", "building_address": "597-603 Lonsdale Street MELBOURNE 3000", "clue_small_area": "Melbourne (CBD)", "trading_name": "The Men's Gallery", "business_address": "597-603 Lonsdale Street MELBOURNE 3000", "number_of_patrons": 675, "longitude": 144.9545005101703, "latitude": -37.81490643957871, "location": {"lon": 144.9545005101703, "lat": -37.81490643957871}},{"census_year": "2005", "block_id": 62, "property_id": "105384", "base_property_id": "105384", "building_address": "204-208 King Street MELBOURNE 3000", "clue_small_area": "Melbourne (CBD)", "trading_name": "Great Western Hotel", "business_address": "204-208 King Street MELBOURNE 3000", "number_of_patrons": 390, "longitude": 144.95549294464604, "latitude": -37.815213231403405, "location": {"lon": 144.95549294464604, "lat": -37.815213231403405}},{"census_year": "2005", "block_id": 64, "property_id": "515538", "base_property_id": "515538", "building_address": "4-6 Goldie Place MELBOURNE 3000", "clue_small_area": "Melbourne (CBD)", "trading_name": "Paris Cat Jazz Club", "business_address": "4-6 Goldie Place MELBOURNE 3000", "number_of_patrons": 200, "longitude": null, "latitude": null, "location": null},{"census_year": "2005", "block_id": 67, "property_id": "103605", "base_property_id": "103605", "building_address": "231-233 Exhibition Street MELBOURNE 3000", "clue_small_area": "Melbourne (CBD)", "trading_name": "The Sen Bar", "business_address": "231-233 Exhibition Street MELBOURNE 3000", "number_of_patrons": 120, "longitude": 144.96952230092296, "latitude": -37.810509029672616, "location": {"lon": 144.96952230092296, "lat": -37.810509029672616}},{"census_year": "2005", "block_id": 67, "property_id": "108581", "base_property_id": "108581", "building_address": "226-236 Russell Street MELBOURNE 3000", "clue_small_area": "Melbourne (CBD)", "trading_name": "Mai Tai Restaurant", "business_address": "234A Russell Street MELBOURNE 3000", "number_of_patrons": 170, "longitude": 144.9676532556974, "latitude": -37.8109838040537, "location": {"lon": 144.9676532556974, "lat": -37.8109838040537}},{"census_year": "2005", "block_id": 78, "property_id": "108991", "base_property_id": "108991", "building_address": "267-271 Spring Street MELBOURNE 3000", "clue_small_area": "Melbourne (CBD)", "trading_name": "Elm's Family Hotel", "business_address": "Part 267-271 Spring Street MELBOURNE 3000", "number_of_patrons": 200, "longitude": 144.97145390976615, "latitude": -37.808610073043155, "location": {"lon": 144.97145390976615, "lat": -37.808610073043155}},{"census_year": "2005", "block_id": 85, "property_id": "105746", "base_property_id": "105746", "building_address": "183-265 La Trobe Street MELBOURNE 3000", "clue_small_area": "Melbourne (CBD)", "trading_name": "Kingpin Melbourne Central Pty Ltd", "business_address": "Shop 305, Level 3, 300-265 La Trobe Street MELBOURNE 3000", "number_of_patrons": 760, "longitude": 144.9627658649244, "latitude": -37.81051474418151, "location": {"lon": 144.9627658649244, "lat": -37.81051474418151}},{"census_year": "2005", "block_id": 87, "property_id": "108565", "base_property_id": "108565", "building_address": "312-318 Russell Street MELBOURNE 3000", "clue_small_area": "Melbourne (CBD)", "trading_name": "Kivotos Cafe Bar", "business_address": "312 Russell Street MELBOURNE 3000", "number_of_patrons": 269, "longitude": 144.9668252164964, "latitude": -37.80932654189252, "location": {"lon": 144.9668252164964, "lat": -37.80932654189252}},{"census_year": "2005", "block_id": 105, "property_id": "109317", "base_property_id": "109317", "building_address": "427-433 Swanston Street MELBOURNE 3000", "clue_small_area": "Melbourne (CBD)", "trading_name": "The Oxford Scholar Hotel", "business_address": "427-433 Swanston Street MELBOURNE 3000", "number_of_patrons": 486, "longitude": 144.96293756796908, "latitude": -37.80846017511618, "location": {"lon": 144.96293756796908, "lat": -37.80846017511618}},{"census_year": "2005", "block_id": 215, "property_id": "108202", "base_property_id": "108202", "building_address": "415-421 Rathdowne Street CARLTON 3053", "clue_small_area": "Carlton", "trading_name": "Clare Castle Hotel", "business_address": "415-421 Rathdowne Street CARLTON 3053", "number_of_patrons": 50, "longitude": 144.97043631976663, "latitude": -37.79652187055923, "location": {"lon": 144.97043631976663, "lat": -37.79652187055923}},{"census_year": "2005", "block_id": 270, "property_id": "104468", "base_property_id": "104468", "building_address": "156-292 Grattan Street PARKVILLE 3010", "clue_small_area": "Parkville", "trading_name": "INU Bar & Restuarant", "business_address": "Part Level 3, 156-292 Grattan Street PARKVILLE 3010", "number_of_patrons": 200, "longitude": 144.9611927667791, "latitude": -37.796776921155825, "location": {"lon": 144.9611927667791, "lat": -37.796776921155825}},{"census_year": "2005", "block_id": 327, "property_id": "102352", "base_property_id": "102352", "building_address": "171-173 Curzon Street NORTH MELBOURNE 3051", "clue_small_area": "North Melbourne", "trading_name": "Albion Hotel", "business_address": "171-173 Curzon Street NORTH MELBOURNE 3051", "number_of_patrons": 150, "longitude": 144.9485601867388, "latitude": -37.79890018784259, "location": {"lon": 144.9485601867388, "lat": -37.79890018784259}},{"census_year": "2005", "block_id": 355, "property_id": "105636", "base_property_id": "105636", "building_address": "46-50 Leveson Street NORTH MELBOURNE 3051", "clue_small_area": "North Melbourne", "trading_name": "The Leveson", "business_address": "46-50 Leveson Street NORTH MELBOURNE 3051", "number_of_patrons": 400, "longitude": 144.95146865346058, "latitude": -37.80370161232632, "location": {"lon": 144.95146865346058, "lat": -37.80370161232632}},{"census_year": "2005", "block_id": 361, "property_id": "109842", "base_property_id": "109842", "building_address": "240-248 Victoria Street NORTH MELBOURNE 3051", "clue_small_area": "North Melbourne", "trading_name": "Central Club Hotel", "business_address": "240-248 Victoria Street NORTH MELBOURNE 3051", "number_of_patrons": 150, "longitude": 144.95813211197202, "latitude": -37.8059126341164, "location": {"lon": 144.95813211197202, "lat": -37.8059126341164}},{"census_year": "2005", "block_id": 362, "property_id": "109843", "base_property_id": "109843", "building_address": "232-238 Victoria Street MELBOURNE 3000", "clue_small_area": "North Melbourne", "trading_name": "The Public Bar Hotel", "business_address": "238 Victoria Street MELBOURNE 3000", "number_of_patrons": 180, "longitude": 144.9585968320725, "latitude": -37.80593464473581, "location": {"lon": 144.9585968320725, "lat": -37.80593464473581}},{"census_year": "2005", "block_id": 658, "property_id": "110266", "base_property_id": "110266", "building_address": "Brunton Avenue JOLIMONT 3002", "clue_small_area": "East Melbourne", "trading_name": "Spotless Services", "business_address": "Part  Brunton Avenue JOLIMONT 3002", "number_of_patrons": 2545, "longitude": 144.98319738818486, "latitude": -37.82000821319277, "location": {"lon": 144.98319738818486, "lat": -37.82000821319277}},{"census_year": "2005", "block_id": 753, "property_id": "110606", "base_property_id": "110380", "building_address": "3 Southgate Avenue SOUTHBANK 3006", "clue_small_area": "Southbank", "trading_name": "Bear Brass", "business_address": "Shop 3, Ground , 3 Southgate Avenue SOUTHBANK 3006", "number_of_patrons": 200, "longitude": 144.9663374737802, "latitude": -37.82071954088171, "location": {"lon": 144.9663374737802, "lat": -37.82071954088171}},{"census_year": "2005", "block_id": 753, "property_id": "110606", "base_property_id": "110380", "building_address": "3 Southgate Avenue SOUTHBANK 3006", "clue_small_area": "Southbank", "trading_name": "Mecca", "business_address": "Restaurant 3, Mid Lvl , 3 Southgate Avenue SOUTHBANK 3006", "number_of_patrons": 200, "longitude": 144.9663374737802, "latitude": -37.82071954088171, "location": {"lon": 144.9663374737802, "lat": -37.82071954088171}},{"census_year": "2005", "block_id": 753, "property_id": "110606", "base_property_id": "110380", "building_address": "3 Southgate Avenue SOUTHBANK 3006", "clue_small_area": "Southbank", "trading_name": "Llama Bar", "business_address": "Shop 5, Mid Lvl , 3 Southgate Avenue SOUTHBANK 3006", "number_of_patrons": 50, "longitude": 144.9663374737802, "latitude": -37.82071954088171, "location": {"lon": 144.9663374737802, "lat": -37.82071954088171}},{"census_year": "2005", "block_id": 753, "property_id": "110606", "base_property_id": "110380", "building_address": "3 Southgate Avenue SOUTHBANK 3006", "clue_small_area": "Southbank", "trading_name": "Saturne", "business_address": "Shop 12, Ground , 3 Southgate Avenue SOUTHBANK 3006", "number_of_patrons": 100, "longitude": 144.9663374737802, "latitude": -37.82071954088171, "location": {"lon": 144.9663374737802, "lat": -37.82071954088171}},{"census_year": "2005", "block_id": 760, "property_id": "108642", "base_property_id": "108642", "building_address": "497-503 St Kilda Road MELBOURNE 3004", "clue_small_area": "Melbourne (Remainder)", "trading_name": "Cafe Dom - The Granite Bar", "business_address": "Part Ground , 499 St Kilda Road MELBOURNE 3004", "number_of_patrons": 230, "longitude": 144.97908599467, "latitude": -37.84331889873595, "location": {"lon": 144.97908599467, "lat": -37.84331889873595}},{"census_year": "2005", "block_id": 915, "property_id": "108456", "base_property_id": "108456", "building_address": "43-49 Royal Parade PARKVILLE 3052", "clue_small_area": "Parkville", "trading_name": "Naughtons Hotel", "business_address": "43-49 Royal Parade PARKVILLE 3052", "number_of_patrons": 120, "longitude": 144.95754147493764, "latitude": -37.79554574576514, "location": {"lon": 144.95754147493764, "lat": -37.79554574576514}},{"census_year": "2005", "block_id": 1103, "property_id": "558180", "base_property_id": "558180", "building_address": "122-148 Harbour Esplanade DOCKLANDS 3008", "clue_small_area": "Docklands", "trading_name": "Locker Room Club Bar", "business_address": "Part Level 1, 140 Harbour Esplanade DOCKLANDS 3008", "number_of_patrons": 500, "longitude": 144.9475184354052, "latitude": -37.81649272044851, "location": {"lon": 144.9475184354052, "lat": -37.81649272044851}},{"census_year": "2006", "block_id": 6, "property_id": "578321", "base_property_id": "573333", "building_address": "2 Swanston Street MELBOURNE 3000", "clue_small_area": "Melbourne (CBD)", "trading_name": "Lower House", "business_address": "Tenancy 17, 2 Swanston Street MELBOURNE 3000", "number_of_patrons": 355, "longitude": 144.9699510419009, "latitude": -37.8177791473443, "location": {"lon": 144.9699510419009, "lat": -37.8177791473443}},{"census_year": "2006", "block_id": 6, "property_id": "578324", "base_property_id": "573333", "building_address": "2 Swanston Street MELBOURNE 3000", "clue_small_area": "Melbourne (CBD)", "trading_name": "Transport", "business_address": "Tenancy 29, 2 Swanston Street MELBOURNE 3000", "number_of_patrons": 900, "longitude": 144.9699510419009, "latitude": -37.8177791473443, "location": {"lon": 144.9699510419009, "lat": -37.8177791473443}},{"census_year": "2006", "block_id": 6, "property_id": "578327", "base_property_id": "573333", "building_address": "2 Swanston Street MELBOURNE 3000", "clue_small_area": "Melbourne (CBD)", "trading_name": "Zinc at Federation Square", "business_address": "Tenancy 18, 2 Swanston Street MELBOURNE 3000", "number_of_patrons": 1000, "longitude": 144.9699510419009, "latitude": -37.8177791473443, "location": {"lon": 144.9699510419009, "lat": -37.8177791473443}},{"census_year": "2006", "block_id": 11, "property_id": "103993", "base_property_id": "103993", "building_address": "508-514 Flinders Street MELBOURNE 3000", "clue_small_area": "Melbourne (CBD)", "trading_name": "Waterside Hotel", "business_address": "508-514 Flinders Street MELBOURNE 3000", "number_of_patrons": 324, "longitude": 144.95715992705334, "latitude": -37.820167373238576, "location": {"lon": 144.95715992705334, "lat": -37.820167373238576}},{"census_year": "2006", "block_id": 11, "property_id": "108971", "base_property_id": "108971", "building_address": "561-585 Flinders Lane MELBOURNE 3000", "clue_small_area": "Melbourne (CBD)", "trading_name": "Holiday Inn On Flinders Melbourne", "business_address": "561-585 Flinders Lane MELBOURNE 3000", "number_of_patrons": 100, "longitude": 144.95511371743692, "latitude": -37.820201437795866, "location": {"lon": 144.95511371743692, "lat": -37.820201437795866}},{"census_year": "2006", "block_id": 11, "property_id": "108972", "base_property_id": "108972", "building_address": "10-22 Spencer Street MELBOURNE 3000", "clue_small_area": "Melbourne (CBD)", "trading_name": "Explorers Inn", "business_address": "10-22 Spencer Street MELBOURNE 3000", "number_of_patrons": 50, "longitude": 144.95525416628004, "latitude": -37.82051068881513, "location": {"lon": 144.95525416628004, "lat": -37.82051068881513}},{"census_year": "2006", "block_id": 12, "property_id": "105399", "base_property_id": "105399", "building_address": "26-32 King Street MELBOURNE 3000", "clue_small_area": "Melbourne (CBD)", "trading_name": "Fourth Watch", "business_address": "Level 1, 26-32 King Street MELBOURNE 3000", "number_of_patrons": 222, "longitude": 144.9574751291228, "latitude": -37.81953042594921, "location": {"lon": 144.9574751291228, "lat": -37.81953042594921}},{"census_year": "2006", "block_id": 13, "property_id": "108058", "base_property_id": "108058", "building_address": "7-11 Queen Street MELBOURNE 3000", "clue_small_area": "Melbourne (CBD)", "trading_name": "The Bliss Lounge", "business_address": "Basement , 11 Queen Street MELBOURNE 3000", "number_of_patrons": 210, "longitude": 144.9619565192058, "latitude": -37.81862081553311, "location": {"lon": 144.9619565192058, "lat": -37.81862081553311}},{"census_year": "2006", "block_id": 14, "property_id": "103165", "base_property_id": "103165", "building_address": "1-5 Elizabeth Street MELBOURNE 3000", "clue_small_area": "Melbourne (CBD)", "trading_name": "Hosies Tavern", "business_address": "288 Elizabeth Street MELBOURNE 3000", "number_of_patrons": 160, "longitude": 144.96461741084877, "latitude": -37.81805796983434, "location": {"lon": 144.96461741084877, "lat": -37.81805796983434}},{"census_year": "2006", "block_id": 14, "property_id": "103172", "base_property_id": "103172", "building_address": "31-39 Elizabeth Street MELBOURNE 3000", "clue_small_area": "Melbourne (CBD)", "trading_name": "The Joint", "business_address": "Unit 6, Floor 1, 35 Elizabeth Street MELBOURNE 3000", "number_of_patrons": 329, "longitude": 144.96434385902413, "latitude": -37.81742309734793, "location": {"lon": 144.96434385902413, "lat": -37.81742309734793}},{"census_year": "2006", "block_id": 14, "property_id": "103946", "base_property_id": "103946", "building_address": "313-315 Flinders Lane MELBOURNE 3000", "clue_small_area": "Melbourne (CBD)", "trading_name": "Mack Daddy Soprano", "business_address": "Unit 1, Basement , 313-315 Flinders Lane MELBOURNE 3000", "number_of_patrons": 100, "longitude": 144.96386031352995, "latitude": -37.817641319866794, "location": {"lon": 144.96386031352995, "lat": -37.817641319866794}},{"census_year": "2006", "block_id": 14, "property_id": "103951", "base_property_id": "103951", "building_address": "341-347 Flinders Lane MELBOURNE 3000", "clue_small_area": "Melbourne (CBD)", "trading_name": "Bull And Bear Tavern", "business_address": "347 Flinders Lane MELBOURNE 3000", "number_of_patrons": 180, "longitude": 144.96304046635782, "latitude": -37.81782473321002, "location": {"lon": 144.96304046635782, "lat": -37.81782473321002}},{"census_year": "2006", "block_id": 16, "property_id": "103938", "base_property_id": "103938", "building_address": "187 Flinders Lane MELBOURNE 3000", "clue_small_area": "Melbourne (CBD)", "trading_name": "Adelphi Hotel", "business_address": "187 Flinders Lane MELBOURNE 3000", "number_of_patrons": 80, "longitude": 144.9683846004515, "latitude": -37.81635974400108, "location": {"lon": 144.9683846004515, "lat": -37.81635974400108}},{"census_year": "2006", "block_id": 25, "property_id": "103964", "base_property_id": "103964", "building_address": "30-44 Manchester Lane MELBOURNE 3000", "clue_small_area": "Melbourne (CBD)", "trading_name": "Manchester Lane", "business_address": "36 Manchester Lane MELBOURNE 3000", "number_of_patrons": 250, "longitude": 144.9662091829816, "latitude": -37.81642295306987, "location": {"lon": 144.9662091829816, "lat": -37.81642295306987}},{"census_year": "2006", "block_id": 33, "property_id": "100727", "base_property_id": "100727", "building_address": "5-9 Bank Place MELBOURNE 3000", "clue_small_area": "Melbourne (CBD)", "trading_name": "Mitre Tavern", "business_address": "5-9 Bank Place MELBOURNE 3000", "number_of_patrons": 300, "longitude": 144.96029792995742, "latitude": -37.816805469325374, "location": {"lon": 144.96029792995742, "lat": -37.816805469325374}},{"census_year": "2006", "block_id": 33, "property_id": "108065", "base_property_id": "108065", "building_address": "93-95 Queen Street MELBOURNE 3000", "clue_small_area": "Melbourne (CBD)", "trading_name": "Basemint Louge Bar", "business_address": "Basement , 95-95 Queen Street MELBOURNE 3000", "number_of_patrons": 167, "longitude": 144.96098388303682, "latitude": -37.816379357258064, "location": {"lon": 144.96098388303682, "lat": -37.816379357258064}},{"census_year": "2006", "block_id": 43, "property_id": "108068", "base_property_id": "108068", "building_address": "111-129 Queen Street MELBOURNE 3000", "clue_small_area": "Melbourne (CBD)", "trading_name": "CQ Bar", "business_address": "Part Mezzanine 0, 123-0 Queen Street MELBOURNE 3000", "number_of_patrons": 100, "longitude": 144.9606455105183, "latitude": -37.8158136440607, "location": {"lon": 144.9606455105183, "lat": -37.8158136440607}},{"census_year": "2006", "block_id": 45, "property_id": "105960", "base_property_id": "105960", "building_address": "318-322 Little Collins Street MELBOURNE 3000", "clue_small_area": "Melbourne (CBD)", "trading_name": "Club F4", "business_address": "Floor 2, 318-322 Little Collins Street MELBOURNE 3000", "number_of_patrons": 380, "longitude": 144.96401670012526, "latitude": -37.81488232647624, "location": {"lon": 144.96401670012526, "lat": -37.81488232647624}},{"census_year": "2006", "block_id": 48, "property_id": "108983", "base_property_id": "108983", "building_address": "103-137 Spring Street MELBOURNE 3000", "clue_small_area": "Melbourne (CBD)", "trading_name": "Hard Rock Cafe", "business_address": "1 Spring Street MELBOURNE 3000", "number_of_patrons": 500, "longitude": 144.9729329718854, "latitude": -37.811995901555065, "location": {"lon": 144.9729329718854, "lat": -37.811995901555065}},{"census_year": "2006", "block_id": 55, "property_id": "101193", "base_property_id": "101193", "building_address": "338-352 Bourke Street MELBOURNE 3000", "clue_small_area": "Melbourne (CBD)", "trading_name": "Juliet's Champagne Bar", "business_address": "338-352 Bourke Street MELBOURNE 3000", "number_of_patrons": 60, "longitude": 144.96329803216406, "latitude": -37.813604858013775, "location": {"lon": 144.96329803216406, "lat": -37.813604858013775}},{"census_year": "2006", "block_id": 56, "property_id": "101207", "base_property_id": "101207", "building_address": "184-186 Bourke Street MELBOURNE 3000", "clue_small_area": "Melbourne (CBD)", "trading_name": "Hollywood Karaoke Bar", "business_address": "Level 1, 184-186 Bourke Street MELBOURNE 3000", "number_of_patrons": 204, "longitude": 144.96769718945876, "latitude": -37.812677389205746, "location": {"lon": 144.96769718945876, "lat": -37.812677389205746}},{"census_year": "2006", "block_id": 58, "property_id": "103621", "base_property_id": "103621", "building_address": "174-192 Exhibition Street MELBOURNE 3000", "clue_small_area": "Melbourne (CBD)", "trading_name": "Rydges Melbourne Hotel", "business_address": "Part Ground , 174-192 Exhibition Street MELBOURNE 3000", "number_of_patrons": 100, "longitude": 144.97060728433877, "latitude": -37.811220324974286, "location": {"lon": 144.97060728433877, "lat": -37.811220324974286}},{"census_year": "2006", "block_id": 58, "property_id": "105828", "base_property_id": "105828", "building_address": "19-25 Little Bourke Street MELBOURNE 3000", "clue_small_area": "Melbourne (CBD)", "trading_name": "Cheers On Little Bourke Street", "business_address": "19 Little Bourke Street MELBOURNE 3000", "number_of_patrons": 350, "longitude": 144.97199956168686, "latitude": -37.8107442049127, "location": {"lon": 144.97199956168686, "lat": -37.8107442049127}},{"census_year": "2006", "block_id": 61, "property_id": "105716", "base_property_id": "105716", "building_address": "597-603 Lonsdale Street MELBOURNE 3000", "clue_small_area": "Melbourne (CBD)", "trading_name": "The Men's Gallery", "business_address": "597-603 Lonsdale Street MELBOURNE 3000", "number_of_patrons": 675, "longitude": 144.9545005101703, "latitude": -37.81490643957871, "location": {"lon": 144.9545005101703, "lat": -37.81490643957871}},{"census_year": "2006", "block_id": 64, "property_id": "515538", "base_property_id": "515538", "building_address": "4-6 Goldie Place MELBOURNE 3000", "clue_small_area": "Melbourne (CBD)", "trading_name": "Paris Cat Jazz Club", "business_address": "4-6 Goldie Place MELBOURNE 3000", "number_of_patrons": 200, "longitude": null, "latitude": null, "location": null},{"census_year": "2006", "block_id": 74, "property_id": "104662", "base_property_id": "104662", "building_address": "106-112 Hardware Street MELBOURNE 3000", "clue_small_area": "Melbourne (CBD)", "trading_name": "Pugg Mahones Irish Bar", "business_address": "Unit 1, 106-112 Hardware Street MELBOURNE 3000", "number_of_patrons": 200, "longitude": 144.96069018343826, "latitude": -37.812137727331304, "location": {"lon": 144.96069018343826, "lat": -37.812137727331304}},{"census_year": "2006", "block_id": 78, "property_id": "103618", "base_property_id": "103618", "building_address": "242-284 Exhibition Street MELBOURNE 3000", "clue_small_area": "Melbourne (CBD)", "trading_name": "Coopers Inn", "business_address": "Shop 1, 242-284 Exhibition Street MELBOURNE 3000", "number_of_patrons": 400, "longitude": 144.96998500471204, "latitude": -37.809416385753934, "location": {"lon": 144.96998500471204, "lat": -37.809416385753934}},{"census_year": "2006", "block_id": 85, "property_id": "105746", "base_property_id": "105746", "building_address": "183-265 La Trobe Street MELBOURNE 3000", "clue_small_area": "Melbourne (CBD)", "trading_name": "Hoyts Cinemas Limited", "business_address": "300-265 La Trobe Street MELBOURNE 3000", "number_of_patrons": 300, "longitude": 144.9628483153142, "latitude": -37.810903109734795, "location": {"lon": 144.9628483153142, "lat": -37.810903109734795}},{"census_year": "2006", "block_id": 87, "property_id": "106057", "base_property_id": "106057", "building_address": "106 Little Lonsdale Street MELBOURNE 3000", "clue_small_area": "Melbourne (CBD)", "trading_name": "Troika Bar", "business_address": "106 Little Lonsdale Street MELBOURNE 3000", "number_of_patrons": 60, "longitude": 144.9685990930347, "latitude": -37.8091527973733, "location": {"lon": 144.9685990930347, "lat": -37.8091527973733}},{"census_year": "2006", "block_id": 95, "property_id": "109315", "base_property_id": "109315", "building_address": "407-409 Swanston Street MELBOURNE 3000", "clue_small_area": "Melbourne (CBD)", "trading_name": "Bunker Lounge Bar", "business_address": "Unit 1, Basement , 407 Swanston Street MELBOURNE 3000", "number_of_patrons": 92, "longitude": 144.963192113967, "latitude": -37.8089570116272, "location": {"lon": 144.963192113967, "lat": -37.8089570116272}},{"census_year": "2006", "block_id": 97, "property_id": "103615", "base_property_id": "103615", "building_address": "333-351 Exhibition Street MELBOURNE 3000", "clue_small_area": "Melbourne (CBD)", "trading_name": "The Owl & The Pussycat", "business_address": "Shop 2, Ground , 333 Exhibition Street MELBOURNE 3000", "number_of_patrons": 100, "longitude": 144.96806936930756, "latitude": -37.80780226572104, "location": {"lon": 144.96806936930756, "lat": -37.80780226572104}},{"census_year": "2006", "block_id": 115, "property_id": "104103", "base_property_id": "104103", "building_address": "34-38 Franklin Street MELBOURNE 3000", "clue_small_area": "Melbourne (CBD)", "trading_name": "Mac's Hotel", "business_address": "34-38 Franklin Street MELBOURNE 3000", "number_of_patrons": 125, "longitude": 144.96162969079765, "latitude": -37.8075203551069, "location": {"lon": 144.96162969079765, "lat": -37.8075203551069}},{"census_year": "2006", "block_id": 204, "property_id": "101613", "base_property_id": "101613", "building_address": "377-391 Cardigan Street CARLTON 3053", "clue_small_area": "Carlton", "trading_name": "Clyde Hotel", "business_address": "377-391 Cardigan Street CARLTON 3053", "number_of_patrons": 239, "longitude": 144.96576379262143, "latitude": -37.79725684086871, "location": {"lon": 144.96576379262143, "lat": -37.79725684086871}},{"census_year": "2006", "block_id": 214, "property_id": "106186", "base_property_id": "106186", "building_address": "414-422 Lygon Street CARLTON 3053", "clue_small_area": "Carlton", "trading_name": "Percys Bar & Bistro", "business_address": "414-422 Lygon Street CARLTON 3053", "number_of_patrons": 120, "longitude": 144.96782181585178, "latitude": -37.79694678651363, "location": {"lon": 144.96782181585178, "lat": -37.79694678651363}},{"census_year": "2006", "block_id": 217, "property_id": "103102", "base_property_id": "103102", "building_address": "171-175 Elgin Street CARLTON 3053", "clue_small_area": "Carlton", "trading_name": "Pugg Mahones", "business_address": "171-175 Elgin Street CARLTON 3053", "number_of_patrons": 500, "longitude": 144.96871691208585, "latitude": -37.797507504118016, "location": {"lon": 144.96871691208585, "lat": -37.797507504118016}},{"census_year": "2006", "block_id": 227, "property_id": "576967", "base_property_id": "576967", "building_address": "184 Rathdowne Street CARLTON 3053", "clue_small_area": "Carlton", "trading_name": "Rathdowne Tavern", "business_address": "184 Rathdowne Street CARLTON 3053", "number_of_patrons": 100, "longitude": 144.9712397941015, "latitude": -37.7947671021019, "location": {"lon": 144.9712397941015, "lat": -37.7947671021019}},{"census_year": "2006", "block_id": 228, "property_id": "101450", "base_property_id": "101450", "building_address": "223-227 Canning Street CARLTON 3053", "clue_small_area": "Carlton", "trading_name": "Dan O'Connell Hotel", "business_address": "223-227 Canning Street CARLTON 3053", "number_of_patrons": 600, "longitude": 144.9733974847086, "latitude": -37.79303186454882, "location": {"lon": 144.9733974847086, "lat": -37.79303186454882}},{"census_year": "2006", "block_id": 247, "property_id": "106238", "base_property_id": "106238", "building_address": "192-202 Lygon Street CARLTON 3053", "clue_small_area": "Carlton", "trading_name": "Players On Lygon", "business_address": "Ground , 200 Lygon Street CARLTON 3053", "number_of_patrons": 200, "longitude": 144.96699165611432, "latitude": -37.80254093983895, "location": {"lon": 144.96699165611432, "lat": -37.80254093983895}},{"census_year": "2006", "block_id": 247, "property_id": "106239", "base_property_id": "106239", "building_address": "186-190 Lygon Street CARLTON 3053", "clue_small_area": "Carlton", "trading_name": "Hotel Milan", "business_address": "186-190 Lygon Street CARLTON 3053", "number_of_patrons": 540, "longitude": 144.96693072583696, "latitude": -37.80264148995404, "location": {"lon": 144.96693072583696, "lat": -37.80264148995404}},{"census_year": "2006", "block_id": 347, "property_id": "110920", "base_property_id": "110920", "building_address": "161-163 Errol Street NORTH MELBOURNE 3051", "clue_small_area": "North Melbourne", "trading_name": "Limerick Castle Hotel & Restaurant", "business_address": "161-163 Errol Street NORTH MELBOURNE 3051", "number_of_patrons": 175, "longitude": 144.9496475098828, "latitude": -37.80115938855124, "location": {"lon": 144.9496475098828, "lat": -37.80115938855124}},{"census_year": "2006", "block_id": 358, "property_id": "109829", "base_property_id": "109829", "building_address": "312-316 Victoria Street NORTH MELBOURNE 3051", "clue_small_area": "North Melbourne", "trading_name": "Victoria Hotel", "business_address": "312-316 Victoria Street NORTH MELBOURNE 3051", "number_of_patrons": 130, "longitude": 144.95571460962805, "latitude": -37.80563375610747, "location": {"lon": 144.95571460962805, "lat": -37.80563375610747}},{"census_year": "2006", "block_id": 375, "property_id": "103810", "base_property_id": "103810", "building_address": "5-17 Flemington Road NORTH MELBOURNE 3051", "clue_small_area": "North Melbourne", "trading_name": "RMIT Village Old Melbourne", "business_address": "5-17 Flemington Road NORTH MELBOURNE 3051", "number_of_patrons": 356, "longitude": 144.9558564154721, "latitude": -37.80143739836392, "location": {"lon": 144.9558564154721, "lat": -37.80143739836392}},{"census_year": "2006", "block_id": 618, "property_id": "109993", "base_property_id": "109993", "building_address": "178-226 Wellington Parade EAST MELBOURNE 3002", "clue_small_area": "East Melbourne", "trading_name": "Hilton", "business_address": "178-226 Wellington Parade EAST MELBOURNE 3002", "number_of_patrons": 200, "longitude": 144.98350791701154, "latitude": -37.81582439332249, "location": {"lon": 144.98350791701154, "lat": -37.81582439332249}},{"census_year": "2006", "block_id": 710, "property_id": "108617", "base_property_id": "108617", "building_address": "375-385 St Kilda Road MELBOURNE 3004", "clue_small_area": "Melbourne (Remainder)", "trading_name": "Royce On St Kilda Road", "business_address": "375-385 St Kilda Road MELBOURNE 3004", "number_of_patrons": 120, "longitude": 144.97555072266726, "latitude": -37.83508390239305, "location": {"lon": 144.97555072266726, "lat": -37.83508390239305}},{"census_year": "2006", "block_id": 730, "property_id": "609329", "base_property_id": "110401", "building_address": "334-342 City Road SOUTHBANK 3006", "clue_small_area": "Southbank", "trading_name": "Eve Bar Lounge", "business_address": "334-342 City Road SOUTHBANK 3006", "number_of_patrons": 600, "longitude": 144.95736075837317, "latitude": -37.82783909985716, "location": {"lon": 144.95736075837317, "lat": -37.82783909985716}},{"census_year": "2006", "block_id": 753, "property_id": "110606", "base_property_id": "110380", "building_address": "3 Southgate Avenue SOUTHBANK 3006", "clue_small_area": "Southbank", "trading_name": "P J O'Briens Irish Pub", "business_address": "Shop 14, Ground , 3 Southgate Avenue SOUTHBANK 3006", "number_of_patrons": 350, "longitude": 144.96631253645785, "latitude": -37.82071954088171, "location": {"lon": 144.96631253645785, "lat": -37.82071954088171}},{"census_year": "2006", "block_id": 801, "property_id": "559161", "base_property_id": "559161", "building_address": "3-7 Riverside Quay SOUTHBANK 3006", "clue_small_area": "Southbank", "trading_name": "Belgian Beer Cafe Eureka", "business_address": "5-7 Riverside Quay SOUTHBANK 3006", "number_of_patrons": 638, "longitude": 144.9645481020912, "latitude": -37.82168190393536, "location": {"lon": 144.9645481020912, "lat": -37.82168190393536}},{"census_year": "2006", "block_id": 802, "property_id": "575820", "base_property_id": "575820", "building_address": "1-9 Freshwater Place SOUTHBANK 3006", "clue_small_area": "Southbank", "trading_name": "BLVD Bar", "business_address": "Shop 4, 3-0 Freshwater Place SOUTHBANK 3006", "number_of_patrons": 562, "longitude": 144.96219203595228, "latitude": -37.821716438356745, "location": {"lon": 144.96219203595228, "lat": -37.821716438356745}},{"census_year": "2006", "block_id": 803, "property_id": "111175", "base_property_id": "110477", "building_address": "8 Whiteman Street SOUTHBANK 3006", "clue_small_area": "Southbank", "trading_name": "Kingpin Bowling", "business_address": "Part Mezzanine 1, 8 Whiteman Street SOUTHBANK 3006", "number_of_patrons": 347, "longitude": 144.95834505639274, "latitude": -37.823162961789635, "location": {"lon": 144.95834505639274, "lat": -37.823162961789635}},{"census_year": "2006", "block_id": 803, "property_id": "111175", "base_property_id": "110477", "building_address": "8 Whiteman Street SOUTHBANK 3006", "clue_small_area": "Southbank", "trading_name": "The Pub At Crown", "business_address": "Shop 46, Ground 0, 8-0 Whiteman Street SOUTHBANK 3006", "number_of_patrons": 300, "longitude": 144.95834505639274, "latitude": -37.823162961789635, "location": {"lon": 144.95834505639274, "lat": -37.823162961789635}},{"census_year": "2006", "block_id": 803, "property_id": "111175", "base_property_id": "110477", "building_address": "8 Whiteman Street SOUTHBANK 3006", "clue_small_area": "Southbank", "trading_name": "Fidel's Bar & Lounge", "business_address": "Shop 61, Basement 0, 8-0 Whiteman Street SOUTHBANK 3006", "number_of_patrons": 100, "longitude": 144.95834505639274, "latitude": -37.823162961789635, "location": {"lon": 144.95834505639274, "lat": -37.823162961789635}},{"census_year": "2006", "block_id": 904, "property_id": "556742", "base_property_id": "556742", "building_address": "419-443 Royal Parade PARKVILLE 3052", "clue_small_area": "Parkville", "trading_name": "Vibe Hotel", "business_address": "419-443 Royal Parade PARKVILLE 3052", "number_of_patrons": 96, "longitude": 144.95882491805455, "latitude": -37.78289972149981, "location": {"lon": 144.95882491805455, "lat": -37.78289972149981}},{"census_year": "2006", "block_id": 1103, "property_id": "558180", "base_property_id": "558180", "building_address": "122-148 Harbour Esplanade DOCKLANDS 3008", "clue_small_area": "Docklands", "trading_name": "Locker Room Club Bar", "business_address": "Part Level 1, 140 Harbour Esplanade DOCKLANDS 3008", "number_of_patrons": 500, "longitude": 144.9475184354052, "latitude": -37.81649272044851, "location": {"lon": 144.9475184354052, "lat": -37.81649272044851}},{"census_year": "2006", "block_id": 1108, "property_id": "573414", "base_property_id": "573414", "building_address": "788-812 Bourke Street DOCKLANDS 3008", "clue_small_area": "Docklands", "trading_name": "Watermark Bar", "business_address": "Shop 9, 800 Bourke Street DOCKLANDS 3008", "number_of_patrons": 300, "longitude": 144.94508950794062, "latitude": -37.81885245528146, "location": {"lon": 144.94508950794062, "lat": -37.81885245528146}},{"census_year": "2007", "block_id": 6, "property_id": "578324", "base_property_id": "573333", "building_address": "2 Swanston Street MELBOURNE 3000", "clue_small_area": "Melbourne (CBD)", "trading_name": "Transport", "business_address": "Tenancy 29, 2 Swanston Street MELBOURNE 3000", "number_of_patrons": 900, "longitude": 144.9699510419009, "latitude": -37.8177791473443, "location": {"lon": 144.9699510419009, "lat": -37.8177791473443}},{"census_year": "2007", "block_id": 6, "property_id": "578325", "base_property_id": "573333", "building_address": "2 Swanston Street MELBOURNE 3000", "clue_small_area": "Melbourne (CBD)", "trading_name": "The big Group", "business_address": "Level 3, 2 Swanston Street MELBOURNE 3000", "number_of_patrons": 350, "longitude": 144.9699510419009, "latitude": -37.8177791473443, "location": {"lon": 144.9699510419009, "lat": -37.8177791473443}},{"census_year": "2007", "block_id": 6, "property_id": "578327", "base_property_id": "573333", "building_address": "2 Swanston Street MELBOURNE 3000", "clue_small_area": "Melbourne (CBD)", "trading_name": "Zinc at Federation Square", "business_address": "Tenancy 18, 2 Swanston Street MELBOURNE 3000", "number_of_patrons": 1000, "longitude": 144.9699510419009, "latitude": -37.8177791473443, "location": {"lon": 144.9699510419009, "lat": -37.8177791473443}},{"census_year": "2007", "block_id": 12, "property_id": "105399", "base_property_id": "105399", "building_address": "26-32 King Street MELBOURNE 3000", "clue_small_area": "Melbourne (CBD)", "trading_name": "Fourth Watch", "business_address": "Level 1, 26-32 King Street MELBOURNE 3000", "number_of_patrons": 222, "longitude": 144.9574751291228, "latitude": -37.81953042594921, "location": {"lon": 144.9574751291228, "lat": -37.81953042594921}},{"census_year": "2007", "block_id": 14, "property_id": "101099", "base_property_id": "101099", "building_address": "16-26 Bond Street MELBOURNE 3000", "clue_small_area": "Melbourne (CBD)", "trading_name": "Bond Lounge", "business_address": "Ground , 20-24 Bond Street MELBOURNE 3000", "number_of_patrons": 500, "longitude": 144.9630673156562, "latitude": -37.818147200690255, "location": {"lon": 144.9630673156562, "lat": -37.818147200690255}},{"census_year": "2007", "block_id": 14, "property_id": "103946", "base_property_id": "103946", "building_address": "313-315 Flinders Lane MELBOURNE 3000", "clue_small_area": "Melbourne (CBD)", "trading_name": "Mack Daddy Soprano", "business_address": "Unit 1, Basement , 313-315 Flinders Lane MELBOURNE 3000", "number_of_patrons": 200, "longitude": 144.96386031352995, "latitude": -37.817641319866794, "location": {"lon": 144.96386031352995, "lat": -37.817641319866794}},{"census_year": "2007", "block_id": 14, "property_id": "103951", "base_property_id": "103951", "building_address": "341-347 Flinders Lane MELBOURNE 3000", "clue_small_area": "Melbourne (CBD)", "trading_name": "Bull And Bear Tavern", "business_address": "347 Flinders Lane MELBOURNE 3000", "number_of_patrons": 415, "longitude": 144.96304046635782, "latitude": -37.81782473321002, "location": {"lon": 144.96304046635782, "lat": -37.81782473321002}},{"census_year": "2007", "block_id": 15, "property_id": "103944", "base_property_id": "103944", "building_address": "277-279 Flinders Lane MELBOURNE 3000", "clue_small_area": "Melbourne (CBD)", "trading_name": "De Biers", "business_address": "Unit 1, Basement , 277 Flinders Lane MELBOURNE 3000", "number_of_patrons": 400, "longitude": 144.96530699086, "latitude": -37.81724194023457, "location": {"lon": 144.96530699086, "lat": -37.81724194023457}},{"census_year": "2007", "block_id": 15, "property_id": "109257", "base_property_id": "109257", "building_address": "1-7 Swanston Street MELBOURNE 3000", "clue_small_area": "Melbourne (CBD)", "trading_name": "Young & Jackson", "business_address": "1-7 Swanston Street MELBOURNE 3000", "number_of_patrons": 470, "longitude": 144.96703233636947, "latitude": -37.817357255280335, "location": {"lon": 144.96703233636947, "lat": -37.817357255280335}},{"census_year": "2007", "block_id": 17, "property_id": "103921", "base_property_id": "103921", "building_address": "91-93 Flinders Lane MELBOURNE 3000", "clue_small_area": "Melbourne (CBD)", "trading_name": "Returned & Services League - Melbourne Sub-branch", "business_address": "91 Flinders Lane MELBOURNE 3000", "number_of_patrons": 90, "longitude": 144.97122719454467, "latitude": -37.815414152739145, "location": {"lon": 144.97122719454467, "lat": -37.815414152739145}},{"census_year": "2007", "block_id": 17, "property_id": "103925", "base_property_id": "103925", "building_address": "121-123 Flinders Lane MELBOURNE 3000", "clue_small_area": "Melbourne (CBD)", "trading_name": "Velour", "business_address": "Unit 1, Gnd & Bmt , 121 Flinders Lane MELBOURNE 3000", "number_of_patrons": 350, "longitude": 144.97052296371248, "latitude": -37.815673646380745, "location": {"lon": 144.97052296371248, "lat": -37.815673646380745}},{"census_year": "2007", "block_id": 21, "property_id": "108967", "base_property_id": "108967", "building_address": "66-70 Spencer Street MELBOURNE 3000", "clue_small_area": "Melbourne (CBD)", "trading_name": "The Batman's Hill Hotel", "business_address": "66-70 Spencer Street MELBOURNE 3000", "number_of_patrons": 1500, "longitude": 144.95475962673038, "latitude": -37.81942775489416, "location": {"lon": 144.95475962673038, "lat": -37.81942775489416}},{"census_year": "2007", "block_id": 25, "property_id": "101789", "base_property_id": "101789", "building_address": "252-254 Flinders Lane MELBOURNE 3000", "clue_small_area": "Melbourne (CBD)", "trading_name": "Hell's Kitchen", "business_address": "Mezzanine , 20A Flinders Lane MELBOURNE 3000", "number_of_patrons": 55, "longitude": 144.96560596517924, "latitude": -37.816604228128824, "location": {"lon": 144.96560596517924, "lat": -37.816604228128824}},{"census_year": "2007", "block_id": 25, "property_id": "103964", "base_property_id": "103964", "building_address": "30-44 Manchester Lane MELBOURNE 3000", "clue_small_area": "Melbourne (CBD)", "trading_name": "Manchester Lane", "business_address": "36 Manchester Lane MELBOURNE 3000", "number_of_patrons": 250, "longitude": 144.9662091829816, "latitude": -37.81642295306987, "location": {"lon": 144.9662091829816, "lat": -37.81642295306987}},{"census_year": "2007", "block_id": 32, "property_id": "102117", "base_property_id": "102117", "building_address": "500-514 Collins Street MELBOURNE 3000", "clue_small_area": "Melbourne (CBD)", "trading_name": "Menzies Tavern", "business_address": "Part Level 1, 525 Collins Street MELBOURNE 3000", "number_of_patrons": 200, "longitude": 144.9574852972072, "latitude": -37.81756404569752, "location": {"lon": 144.9574852972072, "lat": -37.81756404569752}},{"census_year": "2007", "block_id": 33, "property_id": "100727", "base_property_id": "100727", "building_address": "5-9 Bank Place MELBOURNE 3000", "clue_small_area": "Melbourne (CBD)", "trading_name": "Mitre Tavern", "business_address": "5-9 Bank Place MELBOURNE 3000", "number_of_patrons": 300, "longitude": 144.96029792995742, "latitude": -37.816805469325374, "location": {"lon": 144.96029792995742, "lat": -37.816805469325374}},{"census_year": "2007", "block_id": 33, "property_id": "105933", "base_property_id": "105933", "building_address": "425-427 Little Collins Street MELBOURNE 3000", "clue_small_area": "Melbourne (CBD)", "trading_name": "The Irish Times", "business_address": "Ground , 427 Little Collins Street MELBOURNE 3000", "number_of_patrons": 170, "longitude": 144.9605449167531, "latitude": -37.816255721754686, "location": {"lon": 144.9605449167531, "lat": -37.816255721754686}},{"census_year": "2007", "block_id": 33, "property_id": "108065", "base_property_id": "108065", "building_address": "93-95 Queen Street MELBOURNE 3000", "clue_small_area": "Melbourne (CBD)", "trading_name": "Basemint Louge Bar", "business_address": "Basement , 95-95 Queen Street MELBOURNE 3000", "number_of_patrons": 167, "longitude": 144.96098388303682, "latitude": -37.816379357258064, "location": {"lon": 144.96098388303682, "lat": -37.816379357258064}},{"census_year": "2007", "block_id": 35, "property_id": "102141", "base_property_id": "102141", "building_address": "280-292 Collins Street MELBOURNE 3000", "clue_small_area": "Melbourne (CBD)", "trading_name": "The Charles Dickens Tavern", "business_address": "Basement , 290 Collins Street MELBOURNE 3000", "number_of_patrons": 450, "longitude": 144.96457927162226, "latitude": -37.81563097004982, "location": {"lon": 144.96457927162226, "lat": -37.81563097004982}},{"census_year": "2007", "block_id": 36, "property_id": "102152", "base_property_id": "102152", "building_address": "162-168 Collins Street MELBOURNE 3000", "clue_small_area": "Melbourne (CBD)", "trading_name": "Long Room", "business_address": "Shop , Basement , 162 Collins Street MELBOURNE 3000", "number_of_patrons": 620, "longitude": 144.9678570562652, "latitude": -37.814504250153206, "location": {"lon": 144.9678570562652, "lat": -37.814504250153206}},{"census_year": "2007", "block_id": 37, "property_id": "102158", "base_property_id": "102158", "building_address": "86-88 Collins Street MELBOURNE 3000", "clue_small_area": "Melbourne (CBD)", "trading_name": "Dr Martin's Tavern", "business_address": "86A Collins Street MELBOURNE 3000", "number_of_patrons": 261, "longitude": 144.97059378480083, "latitude": -37.8139380932959, "location": {"lon": 144.97059378480083, "lat": -37.8139380932959}},{"census_year": "2007", "block_id": 43, "property_id": "101152", "base_property_id": "101152", "building_address": "457-471 Bourke Street MELBOURNE 3000", "clue_small_area": "Melbourne (CBD)", "trading_name": "Madisons Restaurant Bar Lounge", "business_address": "Part Ground , 461 Bourke Street MELBOURNE 3000", "number_of_patrons": 280, "longitude": 144.96018234285577, "latitude": -37.8154932912598, "location": {"lon": 144.96018234285577, "lat": -37.8154932912598}},{"census_year": "2007", "block_id": 46, "property_id": "101130", "base_property_id": "101130", "building_address": "193-199 Bourke Street MELBOURNE 3000", "clue_small_area": "Melbourne (CBD)", "trading_name": "The Carlton Hotel", "business_address": "Floor 1, 193-199 Bourke Street MELBOURNE 3000", "number_of_patrons": 200, "longitude": 144.9676551111507, "latitude": -37.81320575010734, "location": {"lon": 144.9676551111507, "lat": -37.81320575010734}},